"wmon","fmisid","station_name","lon","lat","elev"
NA,100002,"vt1 Nupuri R",24.59641,60.22805,40
NA,100003,"kt51 Hki Lapinlahti R",24.8909,60.16612,11
NA,100004,"st110 Myllylampi R",24.2365,60.3122,76
NA,100005,"vt4 Jakomäki R",25.06451,60.25159,23
NA,100006,"vt4 Kerava R",25.12375,60.4264,43
NA,100007,"vt7 Koskenkylä R",25.91003,60.4909,2
NA,100009,"vt4 Ohkola R",25.18706,60.55558,79
NA,100010,"vt4 Levanto R",25.44802,60.7359,99
NA,100011,"vt7 Sipoonlahti",25.32499,60.28143,7
NA,100012,"kt51 Kivenlahti R",24.66754,60.15297,10
NA,100013,"kt51 Inkoo R",24.0759,60.06059,13
NA,100014,"vt25 Hanko R",23.02192,59.85642,10
NA,100015,"vt25 Karjaa R",23.72603,60.08069,45
NA,100016,"vt25 Virkkala R",24.01937,60.2037,45
NA,100018,"vt25 Hyvinkää R",24.83246,60.58054,91
NA,100019,"vt7 Porvoo",25.59376,60.37899,17
NA,100020,"vt3 Karhunkorpi R",24.85203,60.49641,84
NA,100021,"kt55 Monninkylä R",25.53826,60.50517,44
NA,100022,"vt7 Loviisa R",26.18498,60.45976,22
NA,100023,"st110 Hyrsylän mutka R",24.0327,60.38976,35
NA,100024,"st110 Oinola R",23.90504,60.38588,56
NA,100025,"vt3 Pirkkola R",24.90504,60.22939,19
NA,100026,"kt50 Askisto R",24.77021,60.27083,22
NA,100027,"kt45 Ilola R",24.99758,60.3207,36
NA,100028,"vt6 Lapinjärvi R",26.18013,60.61651,27
NA,100030,"vt3 Keimola 2 R",24.82601,60.32643,49
NA,100031,"kt45 Raala R",24.94601,60.46443,54
NA,100032,"vt1 Palojärvi R",24.31916,60.29328,55
NA,100034,"kt51 Vaskisalmi R",24.85246,60.16408,3
NA,100036,"kt51 Karhusaari R",24.82312,60.16897,6
NA,100038,"Vantaa Hakkila R",25.07997,60.28224,36
NA,100039,"kt51 Kirkkonummi R",24.401,60.11381,8
NA,100040,"vt2 Karkkila R",24.22734,60.53931,90
NA,100041,"vt25 Tammisaari R",23.39942,59.97985,12
NA,100042,"vt25 Keravanjärvi R",25.09232,60.61717,90
NA,100043,"st101 Turvesuo R",24.80758,60.18485,2
NA,100046,"st167 Hallila R",25.86321,60.62075,38
NA,100052,"vt1 Kolmiranta R",24.50371,60.26191,74
NA,100053,"vt1 Lehmijärvi R",24.15869,60.28811,66
NA,100057,"vt6 Kimonkylä R",26.30298,60.69938,30
NA,100058,"Vuosaaren satama R",25.15323,60.24139,3
NA,100059,"Vuosaaren tunneli R",25.16133,60.23234,10
NA,100060,"Satamatie R",25.17233,60.2228,5
NA,100072,"kt50 Suutarila R",25.0161,60.28493,17
NA,100073,"st120 Salmi Opt",24.53801,60.35491,54
NA,100074,"yt1282 Ikkala R",24.08734,60.49857,91
NA,100079,"vt8 Ihode R",21.5943,60.9555,21
NA,100080,"vt8 Eurajoki R",21.69383,61.27831,39
NA,100081,"st110 Tupuri R",23.23238,60.38308,80
NA,100082,"vt2 Seppälänahde R",22.44785,61.20855,58
NA,100083,"vt3 Ikaalinen R",22.99583,61.7885,122
NA,100084,"vt8 Mynämotelli R",21.92648,60.73798,32
NA,100085,"vt8 Ahlainen R",21.75964,61.64981,32
NA,100086,"vt3 Lamminkoski R",23.00945,62.11578,151
NA,100087,"vt9 Mellilä R",22.87959,60.78217,96
NA,100088,"vt10 Koski R",23.12945,60.69167,83
NA,100089,"vt11 Sääkskoski R",22.34721,61.46685,88
NA,100090,"vt23 Hapua R",22.28393,61.80091,81
NA,100091,"kt40 Auranlaakso R",22.37454,60.4687,30
NA,100092,"kt41 Jokisivu R",22.65302,61.11026,60
NA,100093,"vt12 Kärppälä R",23.11719,61.36791,79
NA,100094,"kt52 Perniö R",23.14745,60.17284,17
NA,100095,"st180 Parainen R",22.34356,60.3205,10
NA,100096,"vt2 Kähkönen R",21.63177,61.53133,4
NA,100098,"st192 Vehmassalmi R",21.74315,60.62545,10
NA,100099,"st183 Taalintehdas R",22.4852,60.04311,11
NA,100100,"kt43 Kalanti R",21.57901,60.82524,25
NA,100101,"vt8 Kuvaskangas R",21.62449,61.94361,59
NA,100102,"vt9 Aura R",22.51063,60.61564,65
NA,100103,"vt10 Yliskulma R",22.62272,60.54281,51
NA,100104,"vt12 Eura R",22.17722,61.13737,55
NA,100105,"kt40 Kärsämäki R",22.28437,60.49785,42
NA,100107,"st110 Korvenpää R",22.94821,60.37712,38
NA,100108,"st110 Kevola R",22.76667,60.41642,31
NA,100109,"st180 Nauvo R",21.79599,60.1699,2
NA,100110,"vt1 Kupittaa R",22.3047,60.44666,20
NA,100112,"vt1 Kaarina R",22.40233,60.42402,24
NA,100114,"vt1 Piikkiö R",22.53482,60.44583,14
NA,100116,"vt1 Paimio R",22.68302,60.4237,40
NA,100118,"vt1 Pitkäporras R",22.84023,60.42836,44
NA,100120,"vt1 Hajala R",22.96914,60.43515,82
NA,100122,"vt1 Halikko R",23.10632,60.41729,44
NA,100124,"vt1 Haukkala R",23.21123,60.4074,68
NA,100126,"Åland Eckero K",19.56651,60.20547,23
NA,100127,"Åland Åva K",21.07287,60.44254,14
NA,100132,"vt1 Muurla R",23.29192,60.38867,32
NA,100134,"st110 Kettulanmäki R",23.74888,60.38131,92
NA,100135,"st110 Kolmperä R",23.66411,60.37201,104
NA,100136,"st110 Aneriojärvi R",23.57559,60.38073,48
NA,100137,"st110 Saha R",23.41185,60.36928,78
NA,100139,"vt10 Lieto R",22.42517,60.49863,22
NA,100140,"st180 Kirjalansalmi R",22.3586,60.36759,18
NA,100141,"vt7 Karhunkangas R",26.98635,60.54485,10
NA,100142,"vt7 Hamina Summa 1",27.08815,60.56944,10
NA,100143,"kt62 Puumala R",28.2546,61.49116,108
NA,100144,"vt5 Mikkeli R",27.24941,61.67766,94
NA,100145,"vt14 Kulennoinen R",29.21752,61.82901,77
NA,100146,"vt7 Sutela R",26.88255,60.50099,7
NA,100147,"vt7 Mokra R",26.8063,60.49563,7
NA,100151,"vt15 Tuohikotti R",27.05906,61.07428,105
NA,100152,"vt13 Karhusjärvi R",28.36353,61.03844,75
NA,100154,"vt15 Kotkansaari R",26.91767,60.46361,0
NA,100157,"vt5 Kuortti R",26.38638,61.39943,104
NA,100164,"st408 Saimaanharju K",28.08857,61.1367,89
NA,100165,"kt62 Anttola K",27.62262,61.58822,82
NA,100166,"vt14 Kyrönsalmen silta Opt",28.89943,61.86833,79
NA,100167,"vt7 Lelu R",27.39562,60.56377,11
NA,100169,"vt4 Lahti R",25.6087,60.90643,80
NA,100170,"vt24 Asikkala R",25.3545,61.22059,127
NA,100171,"vt2 Humppila R",23.32413,60.94423,103
NA,100172,"vt3 Hämeenlinna R",24.47912,60.96417,108
NA,100173,"vt11 Nokia R",23.42519,61.50159,149
NA,100174,"vt3 Lempäälä Kulju R",23.76504,61.40841,125
NA,100175,"st130 Sääksmäki R",24.05708,61.16296,82
NA,100176,"vt10 Tammela R",24,60.82628,137
NA,100177,"vt3 Riihimäki R",24.73735,60.70605,107
NA,100178,"vt12 Hämeenkoski R",25.22193,61.0096,119
NA,100179,"vt12 Hauho R",24.68181,61.15949,95
NA,100180,"vt12 Pälkäne R",24.29106,61.31112,104
NA,100181,"vt9 Orivesi R",24.2193,61.6451,149
NA,100182,"kt66 Ruovesi R",24.01676,62.02104,128
NA,100183,"vt23 Virrat R",23.80253,62.24076,139
NA,100184,"vt12 Tampere R",23.89794,61.49754,126
NA,100185,"vt12 Tre Paasikiventie R",23.69954,61.5077,106
NA,100186,"vt9 Kylmäkoski R",23.63858,61.11414,103
NA,100187,"kt54 Hausjärvi R",25.04872,60.81868,116
NA,100188,"kt58 Mänttä R",24.61315,61.9698,109
NA,100189,"vt3 Ylöjärvi R",23.47546,61.5771,172
NA,100190,"vt12 Lahti R",25.61162,60.97826,145
NA,100192,"vt3 Lempäälä Lippo R",23.83609,61.25532,98
NA,100193,"vt3 Jutikkala R",24.06641,61.14,97
NA,100194,"vt3 Pirkkala R",23.63602,61.45264,101
NA,100195,"vt9 Suinula R",24.07172,61.54979,122
NA,100196,"vt9 Leppähammas R",24.4759,61.70876,102
NA,100197,"vt9 Solttila R",24.7092,61.73145,115
NA,100226,"vt6 Elimäki R",26.49277,60.78523,54
NA,100227,"vt6 Imatra R",28.86698,61.23904,93
NA,100228,"vt6 Parikkala R",29.58644,61.64839,76
NA,100229,"vt13 Kauriansalmi R",27.3934,61.30792,104
NA,100230,"vt6 Taavetti R",27.65985,60.93415,92
NA,100231,"vt6 Lappeenranta R",28.31,61.07181,83
NA,100232,"vt12 Mankala R",26.18593,60.91116,95
NA,100234,"vt7 Virojoki R",27.72484,60.58679,9
NA,100235,"vt15 Juurikorpi R",26.92148,60.62496,26
NA,100236,"vt26 Pyhältö R",27.35001,60.77739,60
NA,100237,"st387 Ylämaa R",27.98019,60.765,53
NA,100238,"vt13 Savitaipale R",27.74574,61.16888,112
NA,100239,"vt6 Utti R",26.85875,60.88663,95
NA,100248,"vt4 Vierumäki R",25.90335,61.08866,122
NA,100249,"vt5 Toivola R",26.69928,61.44994,107
NA,100250,"vt5 Nuutilanmäki R",27.62834,61.81869,85
NA,100251,"vt4 Onkiniemi R",26.04584,61.40385,115
NA,100252,"vt5 Puunkolo R",27.80999,62.05934,119
NA,100253,"vt14 Parkumäki R",28.52796,61.94019,119
NA,100254,"vt15 Tommola R",27.16464,61.28147,88
NA,100255,"vt23 Suurmäki R",28.91997,62.53358,133
NA,100256,"vt23 Siikamäki R",27.3986,62.29081,127
NA,100257,"vt13 Läsänkoski R",26.95873,61.88458,108
NA,100258,"vt6 Lehmo R",29.78353,62.64475,91
NA,100259,"vt6 Kesälahti R",29.73118,61.79731,87
NA,100260,"vt9 Liperi R",29.14882,62.6622,90
NA,100261,"kt73 Lieksa R",30.14703,63.1876,119
NA,100262,"vt6 Tohmajärvi R",30.10403,62.23841,112
NA,100263,"vt6 Juuka R",29.30206,63.21663,110
NA,100264,"vt6 Nurmes R",28.91081,63.6286,109
NA,100265,"kt74 Ilomantsi R",30.70284,62.58303,177
NA,100266,"vt9 Ylämylly R",29.60425,62.63049,89
NA,100268,"vt9 Värtsilä R",30.52561,62.17871,91
NA,100269,"vt9 Käsämä R",29.34088,62.63252,91
NA,100271,"vt6 Tikkala R",30.09017,62.40081,86
NA,100272,"kt73 Louhioja R",30.1001,62.79711,108
NA,100273,"st522 Hattuvaara K",31.27796,62.93001,197
NA,100274,"kt71 Väärämäki K",29.6112,62.0542,90
NA,100275,"vt6 Joensuu R",29.78086,62.61422,78
NA,100276,"kt75 Mujejärvi R",29.4574,63.82408,250
NA,100281,"st524 Nurmijärvi K",29.99552,63.52359,130
NA,100282,"st522 Hatunkylä K",30.53234,63.28364,175
NA,100283,"st500 Hoilola K",30.85026,62.34554,151
NA,100285,"vt5 Kuopio E R",27.60687,62.84118,91
NA,100286,"vt5 Leppävirta R",27.80846,62.38292,94
NA,100287,"vt5 Lapinlahti R",27.45134,63.30954,106
NA,100288,"vt5 Iisalmi Ryhälänmäki R",27.28532,63.66613,175
NA,100289,"vt5 Siilinjärvi R",27.66508,63.06289,135
NA,100290,"vt9 Tuusjärvi R",28.34439,62.86783,102
NA,100291,"kt77 Pielavesi R",26.94884,63.2322,159
NA,100292,"kt75 Nilsiä R",28.05616,63.15741,161
NA,100293,"vt9 Suonenjoki R",27.04921,62.58534,106
NA,100294,"vt27 Kiuruvesi R",26.84332,63.6143,134
NA,100295,"vt9 Vartiala R",28.04281,62.93157,115
NA,100296,"vt9 Jännevirta R",27.86172,62.95818,86
NA,100298,"vt9 Vehmasmäki R",27.55382,62.72765,140
NA,100301,"kt88 Isomäki K",26.72943,63.91154,190
NA,100302,"kt87 Koirakoski K",27.80066,63.60668,121
NA,100303,"st551 Vesanto K",26.38909,62.92721,113
NA,100304,"vt5 Siikalahti R",27.63673,62.88515,90
NA,100307,"vt5 Oravikoski R",27.60496,62.58962,92
NA,100319,"vt4 Toivakka R",26.04859,62.03294,191
NA,100320,"vt9 Korpilahti R",25.50041,61.99937,146
NA,100321,"vt18 Petäjävesi R",25.39371,62.27162,157
NA,100322,"vt4 Konginkangas R",25.81014,62.87769,105
NA,100323,"vt24 Kuhmoinen R",25.29535,61.63193,132
NA,100324,"vt4 Tikkakoski R",25.69378,62.42001,125
NA,100325,"vt9 Lievestuore R",26.14013,62.24617,124
NA,100326,"vt4 Viitasaari R",25.66331,63.2244,132
NA,100327,"vt13 Saarijärvi R",25.09856,62.77831,171
NA,100328,"vt13 Kyyjärvi R",24.69727,63.00042,174
NA,100329,"vt9 Hankasalmi R",26.59049,62.3775,109
NA,100330,"vt23 Keuruu R",24.56206,62.24553,129
NA,100331,"vt4 Joutsa R",26.08372,61.72251,100
NA,100332,"vt9 Jyväskylä R",25.76877,62.24618,84
NA,100333,"vt13 Äänekoski R",25.65201,62.57325,116
NA,100334,"vt9 Jämsä R",25.32841,61.91372,111
NA,100335,"vt9 Jämsä Partalanm R",25.06261,61.82529,174
NA,100336,"vt4 Petomäki R",25.76717,62.69387,152
NA,100337,"vt4 Puuppola R",25.69999,62.36393,117
NA,100338,"vt9 Hankasalmi as R",26.47253,62.3046,99
NA,100339,"vt9 Keljonkangas R",25.68152,62.17971,154
NA,100344,"vt8 Kristiina R",21.53082,62.0678,34
NA,100345,"vt8 Närpiö R",21.43867,62.47823,17
NA,100346,"vt8 Vaasa R",21.76188,63.13966,21
NA,100347,"vt8 Oravainen R",22.28233,63.25631,6
NA,100348,"kt68 Pietarsaari R",22.82018,63.63932,7
NA,100349,"vt8 Kokkola R",23.27419,63.86089,7
NA,100350,"vt3 Jalasjärvi R",22.79857,62.39101,100
NA,100351,"vt3 Ilmajoki R",22.28176,62.78724,71
NA,100352,"kt66 Alavus R",23.62607,62.44893,121
NA,100353,"vt19 Lapua R",23.03817,62.93992,48
NA,100354,"vt3 Laihia Ruto R",21.89884,63.00136,10
NA,100355,"vt8 Pirttikylä R",21.64149,62.74794,40
NA,100356,"vt16 Alajärvi R",23.67876,63.01975,79
NA,100357,"kt67 Seinäjoki R",22.77874,62.79542,42
NA,100358,"vt13 Kaustinen R",23.46419,63.6009,58
NA,100359,"kt44 Kauhajoki E R",22.24545,62.11623,123
NA,100360,"kt67 Kauhajoki P R",22.281,62.481,95
NA,100361,"vt18 Töysä R",23.89992,62.61174,153
NA,100362,"kt68 Evijärvi R",23.51545,63.33462,65
NA,100363,"st749 Eugmo Luoto R",22.7827,63.80555,4
NA,100364,"vt19 Alahärmä Voltti R",22.79902,63.28904,28
NA,100365,"st724 Raippaluoto R",21.47327,63.20668,28
NA,100366,"vt8 Uusikaarlepyy R",22.58859,63.4621,24
NA,100367,"vt8 Himanka R",23.63881,64.04205,5
NA,100368,"vt16 Ylistaro R",22.63982,62.97259,40
NA,100369,"vt8 Lapväärtti R",21.47955,62.26646,6
NA,100370,"vt8 Riimala R",21.76235,62.9514,19
NA,100371,"vt8 Kruunupyy Lepplax R",22.91441,63.67092,5
NA,100372,"st673 Rangsby R",21.22345,62.61074,2
NA,100374,"kt63 Ullava R",24.00927,63.65566,127
NA,100375,"kt67 Teuva R",21.80549,62.49629,83
NA,100377,"kt67 Koskenkorva R",22.48594,62.68594,54
NA,100378,"vt18 Kuivaskylä R",23.46761,62.59234,118
NA,100379,"vt19 Luopajärvi R",22.75304,62.58764,91
NA,100382,"vt8 Vassor R",22.00878,63.15915,1
NA,100383,"vt18 Napue R",22.31564,62.98971,23
NA,100384,"kt66 Mäyry R",23.52789,62.77123,89
NA,100385,"vt8 Kalajoki R",23.9586,64.33723,8
NA,100386,"vt28 Kannus R",23.88634,63.90121,45
NA,100387,"vt27 Ylivieska R",24.74418,64.00291,78
NA,100388,"kt86 Oulainen R",24.91162,64.30945,79
NA,100389,"vt4 Pyhäjärvi R",25.91754,63.71142,157
NA,100390,"kt58 Lestijärvi R",24.66925,63.52088,146
NA,100391,"vt13 Veteli R",23.92427,63.42518,99
NA,100392,"vt4 Ouluntulli R",25.53205,64.94735,11
NA,100393,"vt8 Pattijoki R",24.56158,64.68631,9
NA,100394,"vt4 Pulkkila R",25.87574,64.28158,84
NA,100395,"vt4 Kuivaniemi R",25.24177,65.54727,6
NA,100396,"vt20 Ylikiiminki R",26.19142,65.18933,96
NA,100397,"vt20 Pintamo R",27.62322,65.44934,173
NA,100398,"vt20 Kuolio R",28.81588,65.82612,269
NA,100399,"vt5 Kitka R",28.89886,66.30526,244
NA,100400,"kt88 Pyhäntä R",26.5522,63.98923,198
NA,100401,"vt22 Utajärvi R",26.26742,64.78117,77
NA,100402,"kt78 Kokkokylä R",26.67648,65.69037,119
NA,100403,"vt4 Haukipudas R",25.42502,65.17447,20
NA,100404,"kt86 Paavola R",25.20979,64.60568,58
NA,100405,"vt4 Temmes R",25.61597,64.6573,42
NA,100406,"vt4 Olhava R",25.3854,65.41237,8
NA,100407,"vt4 Kärsämäki R",25.75565,64.00644,111
NA,100408,"vt8 Liminka R",25.35842,64.78482,28
NA,100410,"vt4 Oulu Intiö R",25.50608,65.02059,16
NA,100411,"vt27 Oksava R",25.2372,63.81332,83
NA,100413,"vt4 Haaransilta R",25.48624,64.81573,6
NA,100416,"st816 Hailuoto R",24.77612,65.03433,7
NA,100417,"vt4 Kontinkangas Opt",25.50753,65.00451,9
NA,100419,"vt5 Petäjälampi R",29.14461,66.01344,268
NA,100420,"vt20 Hönttämäki R",25.59864,65.05235,30
NA,100424,"vt22 Pikkarala R",25.84045,64.88411,15
NA,100426,"vt28 Kokkosuo R",26.96178,64.11397,155
NA,100427,"vt6 Korholanmäki R",27.99702,64.14228,217
NA,100428,"vt5 Roukajoki R",28.40364,64.57641,151
NA,100429,"vt22 Liminpuro R",27.24114,64.53361,131
NA,100430,"vt5 Palovaara R",28.9395,65.14676,239
NA,100431,"kt78 Paasikoski R",27.70166,65.03363,165
NA,100432,"kt76 Tervasalmi R",29.10481,64.08493,164
NA,100433,"vt5 Hatulanmäki R",27.40538,63.99569,207
NA,100434,"vt4 Kuivasjärvi R",25.44001,65.07822,14
NA,100435,"vt5 Rytivaara R",28.03861,64.31575,149
NA,100436,"vt5 Suomussalmi R",28.8436,64.78671,225
NA,100437,"vt20 Pudasjärvi R",26.84731,65.27558,118
NA,100438,"kt89 Kuusamonkylä R",29.33451,64.43348,196
NA,100439,"vt5 Suomussalmi Pisto R",29.0379,65.4258,240
NA,100440,"st921 Kaakamo R",24.45775,65.80785,5
NA,100441,"vt4 Jaatila R",25.33881,66.25233,57
NA,100442,"vt4 Saariselkä R",27.42512,68.45656,345
NA,100443,"vt4 Vuojärvi R",26.5454,67.06941,220
NA,100444,"vt21 Kattilakoski R",23.79012,66.51078,88
NA,100446,"vt4 Porttipahta R",26.88834,67.98996,252
NA,100447,"vt4 Paakkola R",24.68977,66.00086,34
NA,100448,"vt4 Napapiiri R",25.84592,66.54751,167
NA,100449,"vt21 Kukkola R",24.05894,65.96676,28
NA,100450,"vt21 Sieppijärvi R",24.04884,67.00325,128
NA,100452,"kt82 Kalliosalmi R",26.64542,66.67601,202
NA,100453,"kt83 Raanujärvi R",24.84689,66.64463,122
NA,100454,"kt79 Lohiniva R",24.92685,67.20012,173
NA,100455,"vt4 Petsikko R",27.24053,69.44483,282
NA,100456,"vt5 Kairala R",27.43738,67.1923,158
NA,100457,"vt21 Tapojärvi R",23.62884,67.53175,183
NA,100458,"vt21 Saarikoski R",21.25211,68.80655,445
NA,100459,"vt4 Isohaara R",24.53217,65.78941,9
NA,100460,"vt29 Luukkaankangas R",24.40831,65.82537,21
NA,100462,"vt29 Kyläjoki R",24.26248,65.83564,8
NA,100465,"st863 Sirniö K",28.08665,65.83395,264
NA,100466,"st970 Nuorgam K",27.94124,70.08841,11
NA,100467,"yt9401 Ylläs maisematie R",24.17832,67.56391,384
NA,100469,"vt5 Suomu K",28.10601,66.55234,189
NA,100470,"vt4 Santa Claus Opt",25.78503,66.53812,121
NA,100473,"vt4 Revontuli R",25.73079,66.50668,86
NA,100475,"vt1 Lakiamäki R",23.35686,60.37346,61
NA,100477,"vt1 Kruusila R",23.4779,60.38049,70
NA,100479,"vt1 Suomusjärvi R",23.5713,60.39117,51
NA,100481,"vt1 Lahnajärvi R",23.72575,60.37624,85
NA,100483,"vt1 Pitkämäki R",23.93642,60.32855,53
NA,100485,"vt1 Karnainen R",24.00195,60.31271,38
NA,100565,"vt7 Hamina Kolsila itä 1",27.25535,60.59553,16
NA,100573,"vt7 Hamina Husula 1",27.16638,60.5924,5
NA,100577,"vt5 Rahusen lampi Opt1",27.67778,62.91887,101
NA,100602,"vt20 Taivalkoski R",28.30051,65.59233,210
NA,100604,"vt5 Jokivaara Opt",29.15156,65.72132,261
NA,100615,"kt63 Toholampi Opt",24.24508,63.7674,103
NA,100618,"vt21 Palojoensuu K",23.07966,68.28743,286
NA,100619,"st962 Pyhätunturi K",27.21422,67.04307,179
NA,100623,"vt5 Tikkalansaari R",27.67123,62.94685,98
NA,100634,"vt26 Myllykylä R",27.21629,60.63051,22
NA,100636,"vt13 Kangasniemi Häppälä Opt",26.3187,62.15924,151
NA,100638,"vt14 Hevonpäänniemi R",28.85419,61.87931,83
NA,100643,"vt5 Tikkalansaari Silta Opt1",27.67192,62.94752,82
NA,100646,"vt6 Pekkalan silta Opt",29.78626,62.61147,79
NA,100647,"yt5200 Lieksa Jaakonvaara K",30.35987,63.09022,233
NA,100648,"kt66 Lapua Opt",23.04967,62.96931,49
NA,100681,"Helsinki Kruunuvuorenselkä",24.99748,60.16322,13
NA,100682,"Helsinki Vartiokylänlahti",25.1105,60.20723,12
2994,100683,"Porvoo Kilpilahti satama",25.54916,60.30373,2
NA,100688,"vt6 Simpele Änkilä Opt",29.34082,61.41926,86
NA,100766,"vt5 Sorsas Vuor Opt1",27.69697,62.96404,86
NA,100776,"st673 Maalahti Petolahti Opt",21.39457,62.86962,3
NA,100777,"vt4 Simo Opt",24.9307,65.66906,5
1018,100791,"Andoya-Trolltinden",16.00306,69.24139,436
1229,100794,"Lebergsfjellet",6.87167,62.51583,625
1237,100795,"Hitra",9.1125,63.51917,13
1345,100796,"Klevavatnet",7.20861,60.71917,960
1357,100798,"Hollekolten",8.5175,60.87056,804
1363,100799,"Dagali Ap",8.50111,60.41583,798
1418,100800,"Austevoll",5.20583,60.01667,32
1429,100801,"Roldalsfjellet",6.73306,59.83139,1010
1462,100806,"Porsgrunn",9.66,59.08722,90
NA,100822,"vt19 Ylihärmä R",22.86836,63.1388,31
6215,100838,"Voorschoten Aws",4.43639,52.13972,0
6438,100839,"Stabroek",4.36389,51.32472,6
10441,100870,"Schauenburg-Elgershausen",9.35889,51.28333,318
2970,100907,"Jomala Maarianhamina lentoasema",19.90362,60.12467,2
2981,100908,"Parainen Utö",21.37479,59.77909,6
2980,100909,"Lemland Nyhamn",19.95374,59.95911,8
2741,100917,"Jomala Jomalaby",19.98686,60.17824,11
2993,100919,"Hammarland Märket",19.13142,60.30098,3
2979,100921,"Kökar Bogskär",20.34748,59.50454,4
2950,100924,"Parainen Fagerholm",21.69828,60.11163,3
2790,100928,"Kumlinge kirkonkylä",20.74698,60.25823,23
2982,100932,"Hanko Russarö",22.94868,59.77363,8
2828,100934,"Kaarina Yltöinen",22.55183,60.3869,6
2743,100945,"Kemiönsaari Vänö",22.19343,59.86949,10
2746,100946,"Hanko Tulliniemi",22.91248,59.80861,10
2747,100947,"Turku Rajakari",22.0964,60.37788,3
2773,100949,"Turku Artukainen",22.1787,60.45439,8
2906,100951,"Kemiönsaari Kemiö",22.75768,60.17123,12
2750,100953,"Hanko Tvärminne",23.24839,59.84383,3
2756,100955,"Salo Kärkkä",23.11292,60.37392,2
2757,100965,"Raasepori Jussarö",23.57309,59.82076,17
2777,100967,"Salo Kiikala lentokenttä",23.64976,60.46415,117
2974,100968,"Vantaa Helsinki-Vantaan lentoasema",24.95675,60.3267,51
2984,100969,"Inkoo Bågaskär",24.01408,59.93114,13
2978,100971,"Helsinki Kaisaniemi",24.94459,60.17523,3
2706,100974,"Lohja Porla",24.04951,60.24446,36
2758,100976,"Vihti Maasoja",24.39862,60.41875,40
2795,100996,"Helsinki Harmaja",24.97539,60.10512,6
2794,100997,"Kirkkonummi Mäkiluoto",24.35023,59.91982,2
NA,101000,"Espoo Kivenlahti",24.64009,60.17771,44
2989,101003,"Helsinki Helsingin majakka",24.92631,59.94898,0
2998,101004,"Helsinki Kumpula",24.96131,60.20307,24
NA,101009,"Helsinki Malmi lentokenttä",25.04549,60.25299,15
2987,101022,"Porvoo Kalbådagrund",25.59879,59.98568,0
2991,101023,"Porvoo Emäsalo",25.62546,60.20382,19
2759,101028,"Porvoo Harabacka",25.6073,60.39172,22
2930,101029,"Sipoo Eestiluoto",25.22275,60.12455,13
2976,101030,"Kotka Rankki",26.95893,60.37538,11
NA,101036,"Loviisa ydinvoimala",26.32215,60.37771,13
2992,101039,"Loviisa Orrengrund",26.44759,60.27476,1
2967,101042,"Kotka Haapasaari",27.18482,60.28676,4
2952,101044,"Pori lentoasema",21.78795,61.46717,12
2964,101059,"Kustavi Isokari",21.02681,60.7222,5
2761,101061,"Rauma Kylmäpihlaja",21.30273,61.14475,4
NA,101062,"Eurajoki Olkiluodon ydinvoimala",21.43072,61.24261,8
2926,101064,"Pori rautatieasema",21.7832,61.47893,9
2972,101065,"Turku lentoasema",22.27916,60.51565,45
2937,101103,"Kokemäki Tulkkila",22.34613,61.25294,38
2963,101104,"Jokioinen Ilmala",23.49761,60.81401,104
2944,101118,"Pirkkala Tampere-Pirkkala lentoasema",23.61811,61.41838,112
2763,101124,"Tampere Härmälä",23.74678,61.46561,84
2949,101128,"Somero Salkola",23.80559,60.64668,142
2829,101130,"Hyvinkää Hyvinkäänkylä",24.80297,60.59589,86
2983,101149,"Nurmijärvi Röykkä",24.65373,60.50878,111
2754,101150,"Hämeenlinna Katinen",24.49163,60.9992,87
2704,101151,"Hattula Lepaa",24.32449,61.11454,87
NA,101152,"Lahti Laune",25.6309,60.96211,78
2767,101154,"Hämeenlinna Lammi Pappila",25.03844,61.05408,125
2727,101185,"Asikkala Pulkkilanharju",25.52021,61.26521,79
2713,101189,"Hämeenlinna Lammi Evo",25.13283,61.2166,134
2966,101191,"Kouvola Utti lentoasema",26.94882,60.89839,102
2830,101194,"Kouvola Anjala",26.81116,60.69648,33
2768,101196,"Heinola Asemantaus",26.0495,61.20005,92
2956,101219,"Kouvola Utti Lentoportintie",26.92915,60.89077,99
2831,101231,"Virolahti Koivuniemi",27.67274,60.5272,5
2958,101237,"Lappeenranta lentoasema",28.15092,61.04416,105
2733,101246,"Lappeenranta Konnunsuo",28.56395,61.03879,46
2959,101247,"Lappeenranta Lepola",28.20873,61.05754,103
2919,101252,"Lappeenranta Hiekkapakka",28.47308,61.1982,77
2734,101254,"Parikkala Koitsanlahti",29.46108,61.44467,74
2931,101256,"Kaskinen Sälgrund",21.19081,62.33382,5
2751,101267,"Pori Tahkoluoto satama",21.37592,61.6304,3
2752,101268,"Kristiinankaupunki Majakka",21.16983,62.20324,0
NA,101270,"Kankaanpää Niinisalo Puolustusvoimat",22.46708,61.83725,120
2708,101272,"Karvia Alkkia",22.79972,62.18325,161
2769,101289,"Kauhajoki Kuja-Kokko",22.18372,62.41345,93
2753,101291,"Kankaanpää Niinisalo lentokenttä",22.46368,61.83864,123
2735,101310,"Virrat Äijänneva",23.54228,62.32783,138
2943,101311,"Tampere Siilinkari",23.75388,61.51757,96
2945,101315,"Jämsä Halli lentoasema",24.80458,61.85539,143
2770,101317,"Juupajoki Hyytiälä",24.28696,61.84591,154
2946,101338,"Jämsä Halli Lentoasemantie",24.81483,61.85959,144
2935,101339,"Jyväskylä lentoasema",25.67087,62.39758,139
2765,101362,"Luhanka Judinsalo",25.50529,61.70448,80
2771,101367,"Joutsa Savenaho",26.09478,61.87942,146
2947,101398,"Mikkeli lentoasema",27.20219,61.6886,99
2736,101418,"Juva Partala",27.88528,61.8923,110
NA,101420,"Joroinen Varkaus lentoasema",27.86012,62.17377,80
2850,101421,"Varkaus Kosulanniemi",27.90785,62.32221,83
2948,101430,"Savonlinna lentoasema",28.93131,61.9464,93
2772,101436,"Rantasalmi Rukkasluoto",28.56618,62.06302,79
2778,101441,"Savonlinna Punkaharju Laukansaari",29.31506,61.80186,79
2832,101459,"Tohmajärvi Kemie",30.34662,62.23539,90
2911,101462,"Vaasa lentoasema",21.7546,63.05858,4
2910,101464,"Mustasaari Valassaaret",21.06856,63.43508,4
2780,101479,"Korsnäs Bredskäret",21.18525,62.93433,1
2781,101481,"Maalahti Strömmingsbådan",20.74006,62.97839,2
2957,101485,"Vaasa Klemettilä",21.63952,63.09875,7
2833,101486,"Seinäjoki Pelmaa",22.48878,62.93808,26
2913,101503,"Kauhava lentokenttä",23.04366,63.12045,42
2924,101520,"Ähtäri Inha",24.14239,62.55461,161
2725,101528,"Halsua Purola",24.44422,63.44564,153
2787,101533,"Alajärvi Möksy",24.26084,63.08898,171
2927,101536,"Multia Karhila",24.80764,62.51044,227
2915,101537,"Viitasaari Haapaniemi",25.85862,63.08225,130
2710,101555,"Vesanto Sonkari",26.4247,62.92178,120
2917,101570,"Siilinjärvi Kuopio lentoasema",27.79935,63.00825,96
2788,101572,"Kuopio Maaninka",27.31317,63.14343,90
2732,101580,"Kuopio Ritoniemi",27.90495,62.79892,86
NA,101581,"Kuopio Vehmasmäki",27.5416,62.73878,190
2955,101586,"Kuopio Savilahti",27.63331,62.89256,87
2789,101603,"Rautavaara Ylä-Luosta",28.66166,63.37806,166
2929,101608,"Liperi Joensuu lentoasema",29.61158,62.65986,118
2791,101609,"Juuka Niemelä",29.23397,63.23236,115
2793,101628,"Liperi Tuiskavanluoto",29.66818,62.54601,78
2928,101632,"Joensuu Linnunlahti",29.7238,62.60155,81
2796,101636,"Lieksa Lampela",30.04578,63.32108,98
2766,101649,"Ilomantsi Pötsönvaara",31.04438,63.14167,233
2939,101651,"Ilomantsi Mekrijärvi",30.97533,62.76966,155
2920,101660,"Pietarsaari Kallan",22.52282,63.75144,2
2721,101661,"Kokkola Tankar",22.84537,63.95114,5
2903,101662,"Kruunupyy Kokkola-Pietarsaari lentoasema",23.13922,63.72068,25
2907,101673,"Kalajoki Ulkokalla",23.44627,64.33073,3
NA,101675,"Kokkola Hollihaka",23.12455,63.84444,6
2737,101689,"Toholampi Laitala",24.16323,63.82133,84
2755,101690,"Ylivieska lentokenttä",24.72468,64.05029,76
2797,101695,"Haapavesi Mustikkamäki",25.42335,64.14263,112
2738,101705,"Pyhäjärvi Ojakylä",25.70573,63.73589,152
2897,101725,"Kajaani lentoasema",27.67114,64.2829,132
2834,101726,"Vieremä Kaarakkala",27.22061,63.8409,206
2798,101743,"Valtimo kirkonkylä",28.82927,63.6673,115
2739,101756,"Sotkamo Kuolaniemi",28.33639,64.11197,161
2799,101773,"Kuhmo Kalliojoki",30.17061,64.2976,196
2800,101775,"Raahe Nahkiainen",23.89674,64.61178,0
2874,101776,"Hailuoto Keskikylä",24.72758,65.01967,6
2863,101783,"Kemi I majakka",24.0961,65.38536,25
2873,101784,"Hailuoto Marjaniemi",24.56118,65.03975,7
2872,101785,"Raahe Lapaluoto satama",24.40695,64.66589,2
2875,101786,"Oulu lentoasema",25.3729,64.92645,11
2803,101787,"Siikajoki Ruukki",25.08919,64.68421,48
2876,101794,"Oulu Vihreäsaari satama",25.39328,65.00639,3
2851,101799,"Oulu Oulunsalo Pellonpää",25.37299,64.937,10
2714,101800,"Vaala Pelso",26.42386,64.50144,114
2866,101805,"Pudasjärvi lentokenttä",26.96311,65.40014,120
2889,101826,"Suomussalmi Pesiö",28.74672,64.93125,222
2859,101831,"Puolanka Paljakka",28.05673,64.66404,341
2864,101840,"Kemi Kemi-Tornio lentoasema",24.58278,65.78944,11
2862,101846,"Kemi Ajos",24.5152,65.67319,2
2880,101851,"Tornio Torppi",24.17369,65.84733,8
2881,101873,"Ranua lentokenttä",26.36754,65.97684,161
2804,101885,"Taivalkoski kirkonkylä",28.21766,65.57489,197
2869,101886,"Kuusamo lentoasema",29.22716,65.99334,264
2811,101887,"Kuusamo Kiutaköngäs",29.31193,66.36999,165
2868,101897,"Kuusamo Rukatunturi",29.15172,66.16616,500
2749,101899,"Kuusamo Juuma",29.39967,66.32027,298
2812,101908,"Ylitornio Meltosjärvi",24.6496,66.52952,93
2844,101914,"Pello kirkonkylä",23.96303,66.77278,85
2845,101920,"Rovaniemi lentoasema",25.83814,66.56236,189
NA,101927,"Rovaniemi Vennivaara",25.57106,66.54931,191
2847,101928,"Rovaniemi rautatieasema",25.7088,66.49832,85
2836,101932,"Sodankylä Tähtelä",26.62901,67.36663,179
2813,101933,"Rovaniemi Apukka",26.01094,66.57944,106
2814,101950,"Kemijärvi lentokenttä",27.15912,66.71556,208
2815,101952,"Savukoski kirkonkylä",28.17691,67.28611,180
2705,101958,"Pelkosenniemi Pyhätunturi",27.2184,67.02204,491
2849,101959,"Salla kirkonkylä",28.68829,66.8166,218
2745,101966,"Salla Naruska",29.17766,67.16226,213
NA,101981,"Kittilä Levitunturi",24.85319,67.78475,522
2820,101982,"Muonio Laukukero",24.03335,68.06284,760
2821,101983,"Muonio Sammaltunturi",24.11559,67.97328,555
2882,101985,"Kittilä Matorova",24.24001,67.99997,340
2720,101986,"Kittilä lentoasema",24.85455,67.69298,193
2824,101987,"Kittilä Kenttärova",24.24301,67.98721,347
2860,101990,"Kittilä kirkonkylä",24.90162,67.6521,181
2717,101994,"Kittilä Pokka",25.78316,68.16961,276
2719,102000,"Sodankylä Lokka",27.74635,67.82151,240
2816,102001,"Sodankylä Vuotso",27.18501,68.08422,248
2722,102005,"Inari Saariselkä matkailukeskus",27.41326,68.41506,302
2817,102006,"Inari Saariselkä Kaunispää",27.4441,68.43394,437
2818,102009,"Inari Raja-Jooseppi",28.30123,68.478,253
2819,102012,"Salla Värriötunturi",29.61132,67.74858,360
2801,102016,"Enontekiö Kilpisjärvi kyläkeskus",20.79115,69.04948,480
2701,102017,"Enontekiö Kilpisjärvi Saana",20.85133,69.04274,1002
2726,102019,"Enontekiö Näkkälä",23.57595,68.60301,374
2857,102026,"Inari Angeli Lintupuoliselkä",25.73646,68.90296,285
2807,102033,"Inari Ivalo lentoasema",27.41897,68.61335,140
2805,102035,"Utsjoki Kevo",27.00678,69.75637,107
2825,102036,"Utsjoki Nuorgam",27.8965,70.08203,22
2827,102042,"Inari Väylä",27.4925,69.07219,123
2702,102047,"Inari Kaamanen",27.26567,69.14089,156
2835,102052,"Inari Nellim",28.29911,68.84928,121
2858,102055,"Inari Kirakkajärvi",28.89409,69.5825,106
NA,102061,"vt6 Kärki R",28.12626,61.03677,101
NA,102089,"vt4 Ristikangas R",24.57353,65.72493,36
NA,102091,"vt4 Siikalahti R",24.62452,65.6841,4
NA,102109,"vt19 Rengonkylä Opt",22.82417,62.70891,83
NA,102110,"vt16 Möksy Opt",24.24781,63.03732,198
NA,102111,"kt68 Vimpeli R",23.81958,63.17058,73
26501,102192,"Mazeikiai",22.31778,56.35389,67
26636,102198,"Svencionys",26.17278,55.14944,222
26714,102199,"Marijampole",23.35194,54.52889,NA
26729,102200,"Alytus",24.06333,54.4125,NA
1030,103436,"Kistefjell",18.12889,69.28972,982
1064,103437,"Iskoras Ii",25.34639,69.3,591
1091,103438,"Losistua",17.78917,68.19056,740
NA,103786,"Järvenpää Sorto",25.08207,60.4846,51
1435,103792,"Haukeliseter Testfelt",7.21417,59.81167,990
2774,103794,"Mäntsälä Hirvihaara",25.19309,60.62785,83
NA,103805,"Loviisa Källa",26.32413,60.37655,13
1136,103900,"Somna-Kvaloyfjellet",11.99278,65.22,302
NA,103943,"Helsinki Vuosaari Käärmeniementie",25.17268,60.21935,9
6214,103972,"Gemini",6.04167,54.03694,37
NA,104601,"vt7 Helsinki Itäsalmi",25.16633,60.26203,17
NA,104602,"vt7 Sipoo Box",25.40983,60.31479,11
NA,104617,"yt9110 Suomussalmi Seikkala K",29.19572,64.65004,212
NA,104796,"Lahti Sopenkorpi",25.62025,60.97467,100
NA,105392,"Sipoo Itätoukki",25.19439,60.10121,5
NA,105427,"Rauma Pyynpää",21.51533,61.13663,15
2823,106435,"Muonio kirkonkylä",23.68449,67.95829,236
NA,106805,"vt22_Oulu_Talonpojankangas_1",25.54621,64.98638,14
NA,106806,"vt8_Pyhäjoki_R",24.21075,64.44749,12
NA,106809,"vt4_Liminka_Tupos_1",25.5185,64.86444,7
NA,106811,"st966_Kuusamo_raja_K",30.09243,65.80011,259
NA,106812,"st847_Oulu_Kiviniemi_K",25.48851,64.97462,3
NA,106813,"yt8690_Kuusamo_Vuotunki_K",29.58471,66.12111,252
NA,106815,"vt4_Oulu_Intiö_3",25.5079,65.01991,17
NA,106864,"vt1_Kaarina_Makarla_Opt1",22.55072,60.44526,27
NA,106866,"st189_Naantali_Luonnonmaa_R",21.98376,60.45915,3
NA,106868,"vt2_Huittinen_1",22.84966,61.10673,85
NA,106871,"vt7_Virolahti_Ravijoki_1",27.47545,60.59646,22
NA,106872,"vt7_Virolahti_Mattila_1",27.75676,60.60585,28
NA,106881,"vt4_Hartola_Kettuvuori_1",26.03446,61.66544,128
NA,106884,"vt7_Vaalimaa_rekkaparkki_1",27.84246,60.59411,24
NA,106889,"vt14_Savonlinna_Laitaatsalmi_Opt1",28.84677,61.87788,82
NA,106893,"kt69_Konnevesi_Istunmäki_1",26.46362,62.70338,151
NA,106894,"vt18_Multia_Väätäiskylä_1",24.66387,61.69171,100
NA,106902,"vt8_Masku_1",22.12401,60.54915,41
NA,106905,"vt9_Kuopio_Jännevirta_Silta_K",27.83001,62.97111,82
NA,106908,"kt78_Ranua_Portimo_R",26.32156,66.10838,151
NA,106909,"vt21_Muonio_Pahtonen_1",23.63282,67.9111,227
NA,106911,"vt21_Muonio_1",23.68442,67.9558,236
NA,106913,"vt21_Muonio_testi",23.68432,67.9558,236
NA,106914,"vt21_Enontekiö_Kilpisjärvi_K",20.87425,69.01668,491
NA,106915,"kt81_Posio_Mourusalmi_K",28.4162,66.09297,241
NA,106916,"vt21_Enontekiö_Ropinsalmi_K",21.59284,68.67537,400
NA,106917,"vt21_Enontekiö_Kelottijärvi_1",22.02334,68.51985,393
NA,106919,"vt21_Enontekiö_Hietajoki_1",22.41201,68.47187,327
NA,106930,"vt1_Espoo_Kolmiranta_Opt12",24.49986,60.25768,59
NA,106946,"vt4_Sodankylä_Petäjämaa_IL",26.61718,67.36213,179
NA,107027,"Lahti_Kivistönmäki_1",25.67549,61.00053,113
NA,107046,"vt4_Pyhäjärvi_Lamminaho_Opt1",25.82003,63.64238,159
NA,107049,"vt4_Siikalatva_Hyttikoski_1",25.79764,64.39521,67
NA,107083,"vt4_Oulu_Lintula_1",25.50546,64.98599,17
NA,107086,"vt4_Pihtipudas_Rönnynkylä_1",25.6414,63.42295,120
NA,107090,"vt4_Äänekoski_Lintulahti_1",25.80752,62.807,104
NA,107095,"vt3_Vaasa_Vanhasatama_1",21.6967,63.07093,6
NA,107096,"vt2_Lohja_Salkola_1",23.89261,60.63863,119
NA,107097,"vt25_Vihti_Haimoo_1",24.52788,60.45882,67
NA,107098,"vt25_Vihti_Nummela_1",24.28689,60.33306,93
NA,107109,"vt8_Siikajoki_Revonlahti_1",24.96804,64.71861,42
NA,107115,"vt6_Kontiolahti_Romppala_Opt1",29.80408,62.95728,138
NA,107130,"vt4_Oulu_Ritaharju_1",25.44249,65.07135,15
NA,107132,"vt10_Hämeenlinna_Eteläinen_1",24.69869,61.0595,101
1010,113907,"Andoya",16.13083,69.30722,13
1015,113909,"Hekkingen Lh",17.83722,69.60056,14
1023,113910,"Bardufoss",18.54,69.05889,77
1025,113911,"Tromso/Langnes",18.91306,69.67667,9
1026,113912,"Tromso",18.93667,69.65361,115
1033,113914,"Torsvag Lh",19.50028,70.24556,24
1035,113916,"Oteren",20.09389,69.55889,710
1036,113917,"Skibotn",20.42528,69.57389,700
1045,113919,"Nordstraum I Kv",21.88417,69.83361,6
1037,113920,"Skibotn 2",20.28222,69.3875,20
1042,113921,"Hasvik-Sluskfjellet",22.44278,70.60694,438
1043,113924,"Rognsundet",22.81944,70.41028,10
1046,113925,"Sorkjosen",20.95528,69.78861,5
1047,113926,"Kautokeino",23.03333,68.99667,307
1049,113927,"Alta Lufthavn",23.35806,69.9775,3
1052,113929,"Hammerfest Ap",23.67694,70.68056,79
1055,113930,"Fruholmen Lh",23.98167,71.09333,14
1057,113931,"Cuovddatmohkki",24.43306,69.36694,286
1059,113932,"Banak",24.98972,70.06,8
1065,113934,"Karasjok",25.50222,69.46333,131
1068,113936,"Honningsvag/Valan",25.97806,71.01056,13
1074,113937,"Mehamn",27.82972,71.03306,13
1083,113940,"Berlevag",29.03472,70.87083,13
1088,113941,"Vadso",29.83528,70.06528,39
1089,113942,"Kirkenes",29.8975,69.72528,86
1092,113943,"Makkaur Lh",30.06778,70.70028,9
1098,113944,"Vardo",31.09889,70.37056,15
1107,113948,"Rost Ap",12.10361,67.52667,2
1108,113949,"Vega-Vallsjo",11.85694,65.70194,9
1112,113950,"Bronnoysund/Bronnoy",12.21806,65.45667,9
1115,113952,"Myken",12.48583,66.76278,17
1116,113953,"Sandnessjoen/Stokka",12.47139,65.96056,17
1117,113954,"Tjotta",12.43139,65.82694,21
1058,113955,"Suolovuopmi Lul",23.53444,69.57944,381
1105,113957,"Rotvaer",15.94278,68.36778,8
1114,113958,"Reipa",13.64583,66.90333,8
1121,113959,"Solvaer Iii",12.61056,66.37056,10
1122,113960,"Mosjoen Ap",13.21778,65.78417,72
1141,113962,"Leknes",13.615,68.155,26
1132,113964,"Majavatn V",13.36667,65.16611,319
1147,113966,"Varntresk",14.18472,65.82639,406
1151,113968,"Mo I Rana/Rossvoll",14.30139,66.36444,70
1152,113969,"Bodo Vi",14.35861,67.26694,13
1156,113971,"Bo I Vesteralen",14.43306,68.60667,8
1160,113972,"Skrova Lh",14.65056,68.15028,11
1161,113973,"Svolvaer/Helle",14.66944,68.24528,9
1162,113974,"Storkmarknes/Skagen",15.02944,68.58,3
1167,113975,"Sortland",15.41667,68.70028,3
1169,113976,"Saltdal",15.31556,66.93722,37
1180,113978,"Harstad",16.53722,68.8025,46
1183,113979,"Evenes",16.68333,68.49111,26
1199,113983,"Sihccajavri",23.53861,68.75528,384
1203,113984,"Krakenes",4.98583,62.03389,40
1205,113985,"Svinoy Lh",5.26778,62.32917,37
1209,113986,"Orsta-Volda/Hovden",6.08056,62.18111,74
1210,113987,"Alesund/Vigra",6.115,62.56167,21
1217,113989,"Molde/Aro",7.26167,62.74444,3
1223,113991,"Kristiansund/Kvernberget",7.81583,63.10944,62
1221,113994,"Tagdalen",9.07222,63.05556,450
1214,113995,"Rekdal",6.755,62.65111,43
1150,113997,"Hjartasen",14.95389,66.49917,251
1158,113998,"Setsa",15.48556,67.16556,8
1224,114001,"Aalesund",6.21056,62.47028,15
1225,114002,"Veiholmen",7.94667,63.52778,5
1227,114003,"Tingvoll-Hanem",8.3,62.83333,69
1228,114004,"Sula",8.46667,63.84667,6
1230,114007,"Bjorli",8.19972,62.25806,579
1232,114008,"Marstein",7.84806,62.445,65
1233,114009,"Dombaas",9.11611,62.07194,638
1238,114010,"Fokstugu",9.28611,62.11306,974
1240,114011,"Halten Lh",9.40611,64.17278,16
1241,114012,"Orland Iii",9.61167,63.70556,10
1245,114013,"Oppdal-Seter",9.66667,62.60417,599
1234,114015,"Orkdal-Thamshamn",9.84944,63.31528,4
1242,114016,"Afjord Ii",10.21556,63.96583,20
1239,114017,"Hjerkinn Ii",9.54222,62.22056,1012
1257,114019,"Trondheim/Voll",10.45389,63.41056,132
1259,114020,"Buholmrasa Lh",10.455,64.40139,18
1262,114021,"Nordoyan Lh",10.54917,64.7975,33
1265,114022,"Tynset-Hansmoen",10.73194,62.26944,482
1253,114023,"Soknedal",10.17861,62.95333,299
1254,114024,"Kotsoy",10.56056,62.97611,127
1271,114025,"Trondheim/Vernes",10.935,63.45917,17
1277,114027,"Steinkjer",11.45056,64.02222,6
1282,114030,"Rorvik/Ryum",11.14083,64.835,4
1288,114031,"Roros Ap",11.35167,62.57722,626
1290,114033,"Namsos Ap",11.57056,64.47083,2
1300,114037,"Gullfaks C",2.26861,61.20417,80
1304,114038,"Ytteroyane Lh",4.68167,61.57167,25
1310,114040,"Floro",5.02778,61.58306,9
1311,114041,"Bergen/Flesland",5.22639,60.28917,50
1317,114042,"Bergen/Florida",5.33361,60.38306,12
1319,114043,"Takle",5.38056,61.02694,38
1320,114044,"Sandane/Anda",6.10444,61.82944,60
1321,114045,"Stryn",6.55833,61.91556,209
1323,114047,"Forde/Bringelandsasen",5.76,61.39111,321
1336,114051,"Voss-Bo",6.22194,60.64556,328
1338,114052,"Vangsnes",6.64694,61.17111,54
1307,114054,"Fedje",4.71972,60.78,19
1329,114056,"Kvamsoy",6.27472,60.35778,50
1337,114057,"Vossevangen",6.42611,60.625,55
1332,114058,"Fjaerland-Bremuseet",6.76417,61.42306,3
1273,114059,"Selbu",11.0075,63.22472,162
1281,114060,"Namsskogan",12.84583,64.74194,140
1287,114061,"Solendet",11.81667,62.67972,760
1327,114062,"Kvamskogen-Jonshogdi",5.96389,60.38861,455
1326,114063,"Modalen Iii",5.97306,60.85611,125
1291,114064,"Gartland",12.38361,64.53083,95
1344,114066,"Mjolfjell",6.93722,60.70194,695
1347,114067,"Sogndal/Haukasen",7.14139,61.15806,497
1350,114068,"Finsevatn",7.53028,60.5925,1210
1355,114069,"Laerdal Iv",7.5025,61.10306,4
1360,114070,"Brata-Slettom",7.89556,61.89639,664
1366,114072,"Sognefjell",7.99778,61.56444,1413
1367,114073,"Fagernes",9.23667,60.98667,365
1368,114074,"Fagernes Leirin",9.29278,61.01278,822
1370,114075,"Skabu-Storslaen",9.40222,61.53083,928
1374,114077,"Vest-Torpa Ii",10.03583,60.93444,542
1375,114078,"Kvitfjell",10.1275,61.46472,1030
1378,114079,"Lillehammer-Saethere",10.47722,61.0925,242
1380,114081,"Venabu",10.10861,61.65111,930
1384,114082,"Oslo/Gardermoen",11.08,60.20639,208
1389,114083,"Rena-Haugedalen",11.37056,61.18583,256
1393,114084,"Drevsjo",12.03333,61.88972,674
1397,114085,"Trysil Vegstasjon",12.27167,61.29417,361
1403,114088,"Utsira Lh",4.87222,59.30639,56
1406,114089,"Slatteroy Lh",5.06806,59.90806,16
1408,114090,"Haugesund/Karmoy",5.19778,59.34972,24
1412,114091,"Obrestad",5.55528,58.65917,26
1415,114092,"Stavanger/Sola",5.63694,58.88417,9
1424,114095,"Sauda",6.36306,59.64861,3
1425,114096,"Eik Hove",6.50056,58.50056,66
1427,114097,"Lista Lh",6.56806,58.10972,14
1434,114101,"Vaagsli",7.36528,59.76611,822
1436,114102,"Lindesnes Lh",7.04778,57.98278,13
1439,114103,"Konsmo-Hoyland",7.38056,58.26694,263
1442,114105,"Byglandsfjord",7.80083,58.66694,211
1448,114107,"Oksoy Lh",8.05306,58.07306,8
1450,114108,"Mosstrand Ii",8.17917,59.83944,977
1452,114109,"Kristiansand/Kjevik",8.07667,58.2,17
1455,114110,"Tveitsund",8.52056,59.02694,255
1459,114111,"Nelaug",8.63111,58.65806,142
1465,114112,"Torungen Fyr",8.78917,58.39861,15
1467,114113,"Lyngor Lh",9.15028,58.63333,5
1470,114114,"Gvarv",9.20111,59.38306,93
1473,114115,"Kongsberg Brannstasj",9.6375,59.62444,173
1476,114118,"Jomfruland Lh",9.57611,58.85694,5
1481,114119,"Melsom",10.34806,59.22972,26
1482,114120,"Ferder Lh",10.52417,59.02694,8
1483,114121,"Torp",10.25528,59.18444,87
1486,114122,"Asker",10.43444,59.85583,163
1492,114124,"Oslo-Blindern",10.72,59.94222,97
1494,114126,"Rygge",10.78806,59.38278,53
1495,114127,"Stromtangen Lh",10.82861,59.15111,10
1340,114131,"Fet I Eidfjord",7.27972,60.40833,736
1392,114133,"Flisa Ii",12.01222,60.61389,185
1411,114135,"Kvitsoy - Nordbo",5.41194,59.07028,22
1469,114136,"Honefoss-Hoyby",10.24778,60.16639,142
1480,114137,"Drammen Berskog",10.12361,59.75361,8
1385,114138,"Hamar",11.06944,60.81778,222
1422,114140,"Fister_Sigmundstad",6.03639,59.15972,30
1431,114141,"Sirdal-Sinnes",6.90944,58.92278,555
1447,114142,"Hoydalsmo Ii",8.19917,59.49694,562
1468,114143,"Kongsvinger",12.00667,60.19028,148
1471,114144,"Veggli Ii",9.14667,60.04333,275
1484,114145,"Aurskog",11.58,59.91194,128
1373,114147,"Nesbyen-Todokk",9.13361,60.56694,167
1383,114148,"Evenstad-Dih",11.08028,61.42528,257
1490,114149,"Tryvasshogda",10.66917,59.98444,514
1352,114150,"Sandhaug",7.48139,60.18389,1250
1361,114151,"Grotli Iii",7.66361,62.01611,872
1386,114152,"Hamar Ii",11.0975,60.80083,132
1416,114153,"Stavanger Vaaland",5.73,58.95694,72
1376,114154,"Gulsvik Ii",9.605,60.38278,142
1488,114155,"Hakadal",10.82889,60.11722,170
1430,114157,"Mandal Iii",7.45167,58.02444,10
1426,114158,"Eigeroya",5.87167,58.43528,49
1477,114159,"Konnerud",10.14583,59.71278,193
1478,114160,"Svenner Lh",10.14778,58.96861,15
1365,114161,"Beitostolen Ii",8.92278,61.25056,965
1419,114162,"Liarvatn",6.12111,59.05083,300
2013,114163,"Ritsem",17.47111,67.72694,543
2024,114165,"Stora Sjofallet",18.29444,67.49639,425
2029,114166,"Tarfala",18.60722,67.91139,1146
2031,114167,"Rensjon",19.83944,68.07472,494
2036,114168,"Nikkaluokta",19.02556,67.85417,468
2038,114169,"Latnivaara",20.27472,67.25639,453
2049,114171,"Gallivare",20.64583,67.14222,360
2055,114173,"Naimakka",21.5275,68.67778,402
2064,114174,"Saittarova",22.23361,67.33778,240
2072,114175,"Parkalompolo",22.82694,67.73167,313
2102,114178,"Stekenjokk",14.50861,65.09444,1036
2103,114179,"Hemavan-Gierevarto",15.06444,65.78,793
2121,114183,"Mierkenis",16.10889,66.68167,615
2124,114184,"Arjeplog",17.83972,66.05139,432
2135,114187,"Buresjon",17.86028,65.55944,393
2147,114189,"Mala-Brannan",18.5975,65.15222,363
2149,114190,"Arvidsjaur",19.26833,65.59528,384
2151,114191,"Jokkmokk Fpl",20.16667,66.48333,275
2154,114192,"Vidsel",20.15417,65.86778,182
2161,114194,"Nattavaara",20.92833,66.75306,327
2173,114195,"Alvsbyn",21.06639,65.67028,43
2174,114196,"Lakatrask",21.13306,66.28028,186
2176,114197,"Pite-Ronnskar",21.56556,65.03528,4
2181,114198,"Overkalix-Svartbyn",22.8475,66.26306,62
2184,114199,"Paharova",22.33639,66.81056,229
2186,114201,"Lulea-Kallax",22.12806,65.54444,17
2188,114202,"Rodkallen",22.37556,65.31306,2
2191,114203,"Storon",23.10083,65.69833,4
2199,114205,"Ylinenjarvi",23.46806,66.62361,132
2209,114207,"Sylarna",12.27778,63.04472,1030
2221,114210,"Korsvattnet",13.50389,63.83972,717
2226,114212,"Ostersund Froson",14.50028,63.19556,359
2231,114214,"Follinge",14.60806,63.67722,362
2236,114216,"Hallhaxasen",15.33111,63.76944,377
2242,114217,"Hoting",16.23889,64.08861,241
2245,114219,"Vilhelmina",16.84222,64.58111,349
2247,114220,"Krangede",16.17333,63.15222,184
2254,114221,"Asele",17.31889,64.16611,309
2260,114223,"Vastmarkum",18.25556,63.12528,143
2261,114224,"Lycksele",18.71694,64.54944,211
2265,114226,"Hemling",18.55028,63.65139,183
2269,114227,"Skagsudde",19.02056,63.18861,11
2271,114228,"Norsjo",19.37861,64.92639,311
2282,114229,"Petistrask",19.69861,64.56694,258
2284,114230,"Jarnasklubb",19.67694,63.43611,7
2286,114231,"Umea",20.28333,63.8,8
2297,114234,"Bjuroklubb",21.57917,64.48139,37
2307,114237,"Idre Fjall",12.85444,61.88944,869
2308,114238,"Tannas",12.67028,62.45028,724
2317,114241,"Dravagen",13.61167,62.09444,566
2319,114242,"Bortnan",13.84583,62.75583,467
2321,114243,"Alvdalen",14.03861,61.25444,253
2325,114245,"Klovsjohojden",14.15722,62.49611,803
2329,114246,"Hamra",14.995,61.66056,455
2331,114247,"Hunge",15.08778,62.75139,343
2338,114249,"Edsbyn",15.71778,61.36139,185
2343,114250,"Torpshammar",16.2775,62.49444,100
2347,114251,"Delsbo",16.54194,61.82722,72
2355,114254,"Kuggoren",17.52528,61.70333,10
2366,114256,"Sundsvall Harnosand",17.44944,62.52278,9
2368,114257,"Bramon",17.74278,62.22083,18
2382,114259,"Lungo",18.09306,62.64306,18
2403,114260,"Naven",13.11111,58.69944,53
2408,114261,"Blomskog",12.07806,59.22194,171
2411,114263,"Arvika",12.63806,59.67472,67
2418,114266,"Karlstad Flygplats",13.3375,59.44472,100
2423,114267,"Sunne",13.11944,59.86444,109
2426,114268,"Gustavsfors",13.80194,60.15389,188
2429,114269,"Daglosen",14.18306,59.66194,133
2432,114270,"Orebro",15.04556,59.22889,53
2435,114271,"Borlange",15.50083,60.42917,150
2440,114272,"Amot",16.43111,60.96222,162
2441,114273,"Mora",14.50722,60.96083,197
2450,114275,"Eggegrund",17.56139,60.73056,4
2452,114276,"Kilsbergen-Suttarboda",14.89861,59.29944,219
2453,114277,"Gavle",17.16417,60.71694,16
2456,114278,"Film",17.90444,60.23583,35
2458,114279,"Uppsala",17.59583,59.90083,21
2464,114280,"Stockholm/Bromma",17.89778,59.36528,14
2468,114281,"Stora Spansberget",15.14056,60.38222,493
2469,114282,"Tullinge",17.91278,59.17889,45
2476,114284,"Floda",16.39778,59.05639,33
2481,114285,"Sala",16.68778,59.90972,58
2482,114286,"Kerstinbo",16.97722,60.26889,57
2484,114287,"Stockholm/Observatoriet",18.06667,59.35,44
2486,114289,"Adelso",17.52444,59.35833,6
2487,114290,"Stavsnas",18.74056,59.34444,22
2488,114291,"Orskar",18.37667,60.52611,9
2489,114292,"Berga",18.10889,59.06778,6
2490,114293,"Svanberga",18.63472,59.83222,16
2493,114294,"Soderarm",19.40889,59.75361,15
2496,114295,"Svenska Hogarna",19.50583,59.44444,12
2500,114297,"Nordkoster",11.00389,58.89194,35
2501,114298,"Vaderoarna",11.06611,58.57611,24
2505,114299,"Maseskar",11.33361,58.09417,16
2513,114302,"Goteborg",11.9925,57.71556,3
2518,114305,"Nidingen",11.90639,57.30389,2
2520,114306,"Satenas",12.71389,58.42889,54
2536,114309,"Rangedala",13.16694,57.785,299
2539,114310,"Ullared",12.77583,57.11361,122
2540,114311,"Kroppefjall-Granan",12.1975,58.60694,174
2542,114312,"Hallum",13.04056,58.32222,71
2546,114313,"Gardsjo",14.39056,58.87722,212
2548,114314,"Visingso",14.40861,58.09528,95
2549,114315,"Tomtabacken",14.4675,57.49833,356
2550,114316,"Jonkoping/Axamo",14.06917,57.75139,224
2552,114317,"Malexander",15.23611,58.07194,197
2554,114319,"Kettstaka",15.03028,58.71611,225
2556,114320,"Hagshult",14.14,57.2925,169
2557,114321,"Horn",15.86556,57.88639,91
2558,114322,"Kolmarden-Stromsfors",16.31056,58.68944,155
2559,114323,"Gladhammar",16.45861,57.70722,31
2562,114324,"Linkoping/Malmslatt",15.52583,58.39806,93
2563,114325,"Harstena",17.01056,58.25056,18
2567,114327,"Landsort",17.87194,58.74361,20
2574,114328,"Norrkoping",16.14694,58.58278,42
2575,114329,"Olands Norra Udde",17.09861,57.36722,4
2587,114332,"Farosund-Ar",18.95694,57.91694,13
2589,114333,"Gotska Sandon",19.19778,58.39444,17
2590,114334,"Visby",18.35,57.66667,47
2598,114337,"Ostergarnsholm",18.98444,57.44139,5
2605,114340,"Hallands Vadero",12.54722,56.44972,10
2607,114341,"Angelholm-Barkakra",12.84417,56.29778,37
2611,114343,"Helsingborg",12.76528,56.03056,44
2616,114344,"Falsterbo",12.81944,55.38389,5
2622,114346,"Ljungby",13.88222,56.85278,148
2623,114347,"Horby",13.66889,55.86333,114
2625,114348,"Skillinge",14.31722,55.48889,5
2628,114349,"Hano",14.84944,56.01389,60
2632,114350,"Utklippan",15.70778,55.95583,2
2635,114351,"Malmo",13.07361,55.57139,21
2644,114352,"Olands Sodra Udde",16.40361,56.19778,3
2648,114354,"Vaxjo",14.8325,56.84639,200
2661,114355,"Kosta (Orrefors)",15.47222,56.845,232
2664,114356,"Ronneby-Bredakra",15.26806,56.26694,58
2670,114357,"Kalmar",16.3,56.68333,4
2287,114359,"Holmon",20.86444,63.80694,8
2293,114360,"Skelleftea",21.07694,64.62472,44
2101,114361,"Hemavan",15.08278,65.80611,463
2443,114362,"Enkoping",17.11667,59.65,26
2516,114363,"Vinga",11.60472,57.63222,19
2545,114364,"Axstal",14.56667,58.56667,93
2095,114365,"Pajala",23.39,67.20361,166
2219,114366,"Gaddede A",14.22083,64.50444,555
2243,114367,"Junsele",16.95,63.68389,221
2267,114368,"Ornskoldsvik",18.97972,63.41167,100
2460,114369,"Stockholm-Arlanda",17.95083,59.62639,28
2526,114370,"Goteborg-Landvetter",12.29194,57.67611,155
2565,114371,"Malilla",15.80111,57.38444,98
2618,114372,"Torpup",13.06028,56.94944,135
2636,114373,"Malmo-Sturup",13.37889,55.52306,73
2141,114374,"Tjakaape",19.2,66.3,583
2449,114375,"Eskilstuna",16.45222,59.3825,12
2544,114376,"Karlsborg",14.50722,58.51361,94
2019,114377,"Katterjakk A",18.16806,68.42028,516
2081,114378,"Karesuando A",22.44361,68.44194,332
2119,114379,"Kvikkjokk Arrenjarka A",18.01972,66.88722,317
2126,114380,"Gunnarn A",17.69944,65.00944,277
2197,114381,"Haparanda A",24.11139,65.82361,15
2462,114382,"Uppsala University",17.63333,59.86667,13
2615,114383,"Falsterbo A",12.81667,55.38361,4
2679,114384,"Hoburg A",18.15056,56.92111,36
2327,114385,"Sveg A",14.40694,62.04611,359
2407,114386,"Malung A",13.70722,60.67639,305
2431,114387,"Kloten",15.25222,59.87028,284
2207,114388,"Storlien-Visjovalen A",12.12194,63.28278,585
2171,114389,"Boden",21.63444,65.80833,27
2498,114390,"Svenska Hogarna A",19.50222,59.44222,14
2561,114391,"Kvarn",15.43361,58.64028,74
2629,114392,"Hastveda",13.93778,56.27444,104
2667,114393,"Karlskrona-Soderstjerna",15.58667,56.14306,4
2210,114394,"Blahammaren A",12.17611,63.18639,1090
3488,114518,"Weybourne",1.1225,52.94944,21
3590,114534,"Wattisham",0.9575,52.12389,90
3684,114544,"Andrewsfield",0.45056,51.89611,87
3693,114545,"Shoeburyness_Landwic",0.82694,51.55472,2
3796,114565,"Langdon Bay",1.34333,51.13361,117
3797,114566,"Manston",1.33556,51.34639,49
3882,114588,"Herstmonceux_West En",0.31694,50.89944,52
6108,114793,"Koldingegnens Luftha",9.33361,55.4375,45
6169,114810,"Gniben",11.27833,56.00833,16
6181,114814,"Jægersborg",12.52639,55.76639,42
6235,114823,"De Kooij",4.78111,52.92694,1
6239,114824,"F3-Fb-1",4.69611,54.85389,24
6240,114825,"Amsterdam Ap Schiphol",4.78972,52.31722,-3
6242,114826,"Vlieland",4.92083,53.24,10
6249,114828,"Berkhout",4.97889,52.64278,-2
6251,114829,"Terschelling Hoorn Aws",5.34583,53.39111,2
6252,114830,"K13-A",3.22028,53.21778,31
6257,114834,"Wijk Aan Zee",4.60306,52.50528,9
6260,114835,"De Bilt",5.17972,52.09889,4
6267,114837,"Stavoren Aws",5.38333,52.89667,-1
6269,114838,"Lelystad Ap",5.51972,52.45722,-4
6270,114839,"Leeuwarden",5.75167,53.22306,2
6273,114840,"Marknesse Aws",5.8875,52.70194,-3
6275,114841,"Deelen",5.87222,52.05472,47
6277,114842,"Lauwersoog Aws",6.19917,53.41167,3
6278,114843,"Heino Aws",6.25889,52.43444,4
6279,114844,"Hoogeveen",6.57306,52.74889,17
6280,114845,"Eelde/Groningen Ap Eelde",6.58472,53.12361,4
6283,114846,"Hupsel Aws",6.65667,52.06778,29
6286,114848,"Nieuw Beerta",7.14917,53.19444,0
6290,114849,"Twente",6.89083,52.27306,35
6310,114851,"Vlissingen",3.59583,51.44139,10
6319,114857,"Westdorpe",3.86111,51.22472,3
6320,114858,"Lichteiland Goeree",3.67,51.92583,19
6321,114859,"Euro Platform",3.275,51.99778,18
6323,114860,"Wilhelminadorp Aws",3.88333,51.53333,1
6330,114862,"Hoek Van Holland",4.12167,51.99111,12
6340,114864,"Woensdrecht",4.34194,51.44778,17
6344,114866,"Rotterdam Ap Zestienhoven",4.44694,51.96056,-5
6348,114867,"Cabauw Tower",4.92583,51.96917,1
6350,114868,"Gilze Rijen",4.93528,51.565,13
6356,114869,"Herwijnen Aws",5.14528,51.85778,3
6370,114870,"Eindhoven Ap",5.37694,51.44972,22
6375,114871,"Volkel",5.70667,51.65833,21
6377,114872,"Ell Aws",5.7625,51.19667,30
6380,114873,"Beek/Maastricht Ap/Maastricht Aachen",5.76194,50.90528,113
6391,114874,"Arcen Aws",6.19611,51.49722,20
6400,114875,"Koksijde",2.6525,51.08806,7
6407,114876,"Oostende (Airport)",2.88722,51.20028,5
6428,114878,"Semmerzake",3.66972,50.94056,38
6432,114880,"Chievres",3.83139,50.57222,63
6449,114882,"Charleroi/Gosselies",4.44,50.45417,188
6450,114883,"Antwerpen/Deurne",4.45778,51.19028,13
6451,114884,"Brussels National (Airport)",4.52722,50.89639,55
6458,114887,"Beauvechain",4.76333,50.74556,123
6465,114889,"Schaffen",5.06194,50.99694,54
6478,114892,"Bierset",5.45556,50.64583,181
6479,114893,"Kleine Brogel",5.46278,51.16889,57
6496,114897,"Elsenborn",6.18139,50.48222,567
6414,115111,"Beitem",3.12167,50.90389,25
6418,115112,"Zeebrugge",3.20167,51.34722,9
6434,115113,"Melle",3.81583,50.98028,15
6459,115115,"Ernage",4.68917,50.58194,157
6464,115116,"Retie",5.02722,51.22139,21
6477,115118,"Diepenbeek",5.45028,50.91556,39
6204,115123,"K14-Fa-1c",3.62778,53.26944,28
6206,115124,"F16-A",4.01222,54.11667,28
6207,115125,"L9-Ff-1",4.96028,53.61444,30
6208,115126,"Awg-1",5.94167,53.49167,27
6201,115149,"D15-Fa-1",2.93583,54.32556,36
6205,115150,"A12-Cpp",3.81028,55.39917,33
6211,115151,"J6-A",2.94528,53.82417,34
6212,115152,"Hoorn-A",4.15028,52.91806,41
7002,115163,"Boulogne",1.59972,50.7325,68
7003,115164,"Le Touquet",1.62278,50.51444,20
7010,115166,"Dunkerque",2.33944,51.05583,16
7015,115167,"Lille-Lesquin",3.0975,50.57,47
10004,115920,"Ufs Tw Ems",6.35,54.16667,0
10007,115921,"Ufs Deutsche Bucht",7.43333,54.18333,0
10015,115922,"Helgoland",7.89167,54.175,8
10020,115924,"List Auf Sylt",8.4125,55.01111,26
10022,115925,"Leck",8.95139,54.79028,8
10033,115928,"Gluecksburg-Meierwik",9.50556,54.82722,33
10035,115930,"Schleswig",9.54944,54.52889,43
10037,115931,"Schleswig-Jagel",9.52056,54.45667,26
10038,115932,"Hohn",9.53944,54.31278,18
10042,115933,"Schoenhagen (Ostseeb",10.02361,54.64083,3
10044,115934,"Leuchtturm Kiel",10.27472,54.50028,26
10046,115935,"Kiel-Holtenau",10.14333,54.37611,28
10055,115936,"Fehmarn",11.06194,54.52972,9
10067,115937,"Marienleuchte",11.24056,54.49361,11
10093,115939,"Putbus",13.47694,54.36417,41
10097,115940,"Greifswalder Oie",13.91,54.24361,11
10113,115941,"Norderney",7.1525,53.71389,16
10124,115944,"Leuchtturm Alte Wese",8.13333,53.86667,31
10126,115946,"Wittmundhafen",7.66667,53.55,12
10129,115948,"Bremerhaven",8.57611,53.53306,6
10130,115949,"Elpersbuettel",9.01056,54.06917,5
10131,115950,"Cuxhaven",8.70694,53.87306,12
10136,115951,"Nordholz (Flugplatz)",8.6575,53.76472,32
10142,115954,"Itzehoe",9.56972,53.98972,26
10146,115955,"Quickborn",9.8775,53.73306,14
10147,115956,"Hamburg-Fuhlsbuettel",9.99,53.635,15
10150,115958,"Doernick",10.35167,54.16528,28
10152,115959,"Pelzerhaken",10.87722,54.08917,2
10156,115960,"Luebeck-Blankensee",10.69889,53.8025,16
10161,115962,"Boltenhagen",11.19222,54.00444,16
10162,115963,"Schwerin",11.38722,53.6425,60
10168,115965,"Goldberg",12.10333,53.60583,59
10170,115967,"Rostock-Warnemuende",12.08222,54.18167,13
10172,115968,"Laage (Flugplatz)",12.27889,53.91556,59
10180,115970,"Barth",12.71083,54.34056,4
10184,115971,"Greifswald",13.4075,54.09778,6
10193,115973,"Ueckermuende",14.06972,53.74444,2
10200,115974,"Emden",7.22694,53.38944,-2
10224,115978,"Bremen",8.79944,53.04639,5
10235,115979,"Soltau",9.79306,52.96028,77
10238,115980,"Bergen",9.93333,52.81667,78
10246,115981,"Fassberg",10.18389,52.91944,88
10249,115982,"Boizenburg",10.68944,53.39306,46
10253,115983,"Luechow",11.1375,52.9725,18
10264,115985,"Marnitz",11.93194,53.32222,87
10267,115986,"Kyritz",12.40917,52.93611,40
10268,115987,"Waren",12.66528,53.51944,65
10270,115988,"Neuruppin",12.80861,52.90528,45
10281,115991,"Trollenhagen",13.30389,53.59972,93
10289,115992,"Gruenow",13.93389,53.31528,57
10291,115993,"Angermuende",13.99306,53.03306,55
10304,115994,"Meppen",7.33333,52.73333,41
10305,115995,"Lingen",7.30806,52.51806,26
10315,115998,"Muenster/Osnabrueck",7.7,52.13528,53
10321,116001,"Diepholz",8.3425,52.58806,43
10325,116002,"Salzuflen, Bad",8.75194,52.10417,137
10334,116003,"Wunstorf",9.42833,52.45806,69
10335,116004,"Bueckeburg",9.08778,52.28194,77
10338,116005,"Hannover",9.67972,52.46583,59
10343,116006,"Celle",10.02806,52.59528,53
10348,116008,"Braunschweig",10.44639,52.29139,82
10356,116009,"Ummendorf",11.17583,52.16,163
10359,116010,"Gardelegen",11.39417,52.51278,48
10361,116011,"Magdeburg",11.58444,52.10333,85
10368,116014,"Wiesenburg",12.45861,52.12056,188
10376,116015,"Baruth",13.49972,52.06139,56
10379,116017,"Potsdam",13.06389,52.38611,100
10381,116018,"Berlin-Dahlem (Fu)",13.3,52.46667,70
10382,116019,"Berlin-Tegel",13.31083,52.56556,37
10384,116020,"Berlin-Tempelhof",13.40194,52.4675,49
10385,116021,"Berlin-Schoenefeld",13.5325,52.38222,50
10393,116023,"Lindenberg",14.11667,52.21667,115
10396,116026,"Manschnow",14.54528,52.54667,13
10400,116027,"Duesseldorf",6.76917,51.2975,41
10410,116031,"Essen-Bredeney",6.96861,51.40556,150
10418,116034,"Luedenscheid",7.64333,51.24667,389
10427,116036,"Kahler Asten",8.49,51.18167,859
10430,116037,"Lippspringe, Bad",8.83861,51.78528,158
10433,116039,"Luegde-Paenbruch",9.27083,51.86639,259
10435,116041,"Warburg",9.11167,51.50389,237
10439,116045,"Fritzlar (Flugp",9.28361,51.11944,181
10444,116046,"Goettingen",9.95278,51.50167,168
10449,116047,"Leinefelde",10.31222,51.39333,353
10452,116048,"Braunlage",10.60222,51.72333,609
10453,116049,"Brocken",10.61833,51.79861,1153
10454,116050,"Wernigerode",10.76861,51.84556,240
10458,116051,"Harzgerode",11.13667,51.65194,405
10460,116052,"Artern",11.29194,51.37444,166
10469,116055,"Leipzig/Halle",12.24139,51.43611,136
10471,116056,"Leipzig-Holzhausen",12.44611,51.315,138
10474,116057,"Wittenberg",12.64639,51.89028,106
10476,116058,"Holzdorf (Flugplatz)",13.16833,51.76861,102
10488,116060,"Dresden-Klotzsche",13.75611,51.12917,232
10490,116061,"Doberlug-Kirchhain",13.57472,51.645,98
10496,116062,"Cottbus",14.31694,51.77611,70
10499,116063,"Goerlitz",14.95306,51.16333,240
10500,116064,"Geilenkirchen (Flugp",6.03917,50.95917,76
10502,116066,"Noervenich (Flugplat",6.65944,50.82889,134
10505,116068,"Bonn-Hangelar",6.02417,50.79806,233
10506,116069,"Nuerburg-Barweiler",6.87028,50.36111,488
10519,116076,"Bonn-Roleber",7.19389,50.73639,160
10526,116078,"Marienberg, Bad",7.96028,50.66194,547
10532,116080,"Giessen/Wettenberg",8.645,50.60306,205
10542,116082,"Hersfeld, Bad",9.73861,50.85306,271
10544,116083,"Wasserkuppe",9.94389,50.49778,925
10548,116084,"Meiningen",10.37722,50.56111,453
10552,116085,"Schmuecke",10.76944,50.65444,939
10554,116086,"Erfurt-Bindersleben",10.96306,50.98472,322
10557,116088,"Neuhaus Am Rennweg",11.13583,50.50139,851
10564,116090,"Schleiz",11.80417,50.56778,502
10565,116091,"Osterfeld",11.92917,51.08722,246
10567,116092,"Gera-Leumnitz",12.13,50.88222,312
10569,116093,"Plauen",12.13,50.48194,389
10574,116095,"Carlsfeld",12.61139,50.43111,899
10577,116097,"Chemnitz",12.87361,50.7925,420
10578,116098,"Fichtelberg",12.95528,50.42944,1215
10579,116099,"Marienberg",13.14694,50.65111,640
10582,116100,"Zinnwald-Georgenfeld",13.75306,50.73278,882
10591,116101,"Lichtenhain-Mittelnd",14.20917,50.93833,319
11438,116379,"Tusimice",13.32806,50.37667,326
11464,116381,"Milesovka",13.93083,50.555,843
11502,116383,"Usti Nad Labem",14.04111,50.68333,379
11509,116384,"Doksany",14.17,50.45889,160
11603,116391,"Liberec",15.02389,50.76972,401
11643,116395,"Pec Pod Snezkou",15.72889,50.69194,821
12100,116437,"Kolobrzeg",15.58056,54.18278,5
12105,116438,"Koszalin",16.15528,54.20444,35
12115,116439,"Ustka",16.85417,54.58833,11
12120,116440,"Leba",17.53472,54.75361,6
12125,116441,"Lebork",17.75694,54.55306,41
12135,116442,"Hel",18.81194,54.60361,3
12160,116446,"Elblag",19.54306,54.22306,185
12185,116447,"Ketrzyn",21.36944,54.06833,110
12195,116448,"Suwalki",22.94889,54.13083,185
12200,116449,"Swinoujscie",14.24222,53.92333,5
12205,116450,"Szczecin",14.62278,53.39528,7
12210,116452,"Resko",15.41472,53.77167,56
12215,116453,"Szczecinek",16.74667,53.71472,142
12230,116454,"Pila",16.74833,53.13111,73
12235,116455,"Chojnice",17.5325,53.71528,172
12250,116456,"Torun",18.59528,53.04222,72
12270,116457,"Mlawa",20.36111,53.10417,149
12272,116458,"Olsztyn",20.42278,53.77111,137
12280,116459,"Mikolajki",21.58861,53.78917,128
12285,116460,"Ostroleka",21.53528,53.0675,94
12295,116461,"Bialystok",23.17222,53.10833,150
12300,116462,"Gorzow Wlkp",15.27722,52.74111,73
12310,116463,"Slubice",14.59389,52.34861,24
12330,116464,"Poznan",16.83472,52.41667,88
12360,116466,"Plock",19.72583,52.58833,109
12375,116469,"Warszawa-Okecie",20.96111,52.16278,106
12385,116470,"Siedlce",22.24472,52.18111,155
12399,116471,"Terespol",23.62194,52.07861,137
12400,116472,"Zielona Gora",15.52444,51.93028,192
12415,116473,"Legnica",16.2075,51.19306,124
12418,116474,"Leszno",16.53472,51.83583,93
12424,116475,"Wroclaw Ii",16.9,51.10333,121
12455,116478,"Wielun",18.55778,51.21111,201
12465,116479,"Lodz",19.39944,51.72333,190
12469,116480,"Sulejow",19.86639,51.35333,189
12488,116482,"Kozienice",21.54361,51.56472,126
12495,116484,"Lublin Radawiec",22.39306,51.21667,240
12497,116485,"Wlodawa",23.52944,51.55333,179
12500,116486,"Jelenia Gora",15.78889,50.90028,343
12510,116487,"Sniezka",15.73944,50.73611,1613
12520,116488,"Klodzko",16.61417,50.43694,357
12530,116489,"Opole",17.96889,50.62694,163
12550,116491,"Czestochowa",19.0925,50.8125,295
12570,116495,"Kielce-Sukow",20.69222,50.81028,261
12585,116498,"Sandomierz",21.71583,50.69667,219
12595,116499,"Zamosc",23.20639,50.69778,213
22028,117195,"Teriberka",35.10694,69.20222,30
22106,117196,"Padun",31.80389,68.60833,63
22113,117197,"Murmansk",33.11667,68.98333,121
22127,117199,"Lovozero",35.03083,68.00389,162
22212,117201,"Moncegorsk",32.92417,67.94222,132
22217,117202,"Kandalaksha",32.35417,67.16917,25
22235,117203,"Krasnoscel'E",37.05083,67.35056,157
22312,117208,"Kovda",32.88472,66.68722,18
22324,117210,"Umba",34.34972,66.68056,40
22349,117211,"Pjalica",39.52389,66.18889,9
22408,117213,"Kalevala",31.15,65.21667,120
22438,117215,"Zizgin",36.81667,65.2,17
22446,117216,"Zimnegorskij Majak",39.73333,65.46667,77
22525,117223,"Raznavolok",34.91667,64.56667,9
22529,117224,"Kolezma",35.88333,64.23333,5
22602,117232,"Reboly",30.81667,63.83333,182
22619,117233,"Padany",33.41667,63.26667,130
22621,117234,"Segeza",34.28333,63.76667,112
22648,117236,"Turcasovo",39.23333,63.11667,36
22721,117241,"Medvezegorsk",34.43333,62.91667,81
22727,117243,"Kondopoga",34.3,62.16667,38
22802,117249,"Sortavala",30.71667,61.71667,19
22820,117251,"Petrozavodsk",34.26667,61.81667,111
22831,117252,"Pudoz",36.58333,61.8,48
22837,117254,"Vytegra",36.45944,61.01694,56
22845,117255,"Kargopol'",38.93472,61.50667,126
22892,117259,"Vyborg",28.73333,60.71667,13
22912,117260,"Olonec",32.98333,60.98333,12
22913,117261,"Lodejnoe Pole",33.55,60.71667,23
22917,117263,"Novaja Ladoga",32.31667,60.11667,9
22925,117264,"Vinnicy",34.78333,60.63333,111
22939,117265,"Belozersk",37.75917,60.02028,131
26029,117365,"Pakri",24.04,59.38944,24
26038,117366,"Tallinn-Harku",24.60278,59.39806,34
26045,117367,"Kunda",26.54139,59.52139,4
26046,117368,"Johvi",27.39833,59.32889,74
26059,117370,"Kingisepp",28.6,59.36667,19
26069,117372,"Belogorka",30.13333,59.35,90
26072,117373,"Petrokrepost'",31,59.93333,16
26078,117374,"Ljuban'",31.23333,59.35,39
26094,117376,"Tihvin",33.55,59.65,61
26099,117377,"Efimovskaja",34.7,59.5,176
26115,117378,"Ristna",22.06639,58.92083,8
26124,117380,"Laane-Nigula",23.81556,58.95111,25
26128,117381,"Virtsu",23.51361,58.57278,4
26134,117382,"Kuusiku",24.73389,58.97306,54
26135,117383,"Turi",25.40917,58.80861,62
26141,117384,"Vaike-Maarja",26.23083,59.14139,122
26144,117385,"Jogeva",26.415,58.74972,72
26145,117386,"Tilrikoja",26.95222,58.86528,34
26157,117387,"Gdov",27.83333,58.73333,41
26167,117388,"Nikolaevskoe",29.8,58.56667,91
26179,117389,"Novgorod",31.25,58.51667,24
26214,117391,"Vilsandi",21.81417,58.38278,7
26218,117393,"Sorve",22.05806,57.91361,4
26226,117394,"Kihnu",23.97028,58.09861,4
26229,117395,"Ainazi",24.36583,57.86778,8
26233,117397,"Viljandi",25.60028,58.37778,88
26247,117400,"Valga",26.0375,57.79,66
26249,117401,"Voru",27.01944,57.84611,84
26258,117402,"Pskov",28.33333,57.81667,44
26268,117404,"Dno",29.95,57.81667,65
26275,117405,"Staraya Russa",31.31667,58.01667,25
26285,117407,"Krestcy",32.53333,58.26667,63
26291,117409,"Borovici",33.9,58.41667,89
26298,117410,"Bologoe",34.03333,57.88333,187
26313,117411,"Kolka",22.58972,57.74694,6
26314,117412,"Ventspils",21.53722,57.39556,3
26318,117413,"Stende",22.55083,57.18333,81
26324,117414,"Mersrags",23.11306,57.33333,6
26326,117415,"Skulte",24.41222,57.30056,9
26335,117416,"Priekuli",25.33861,57.31583,123
26339,117417,"Zoseni",25.90556,57.135,189
26346,117418,"Aluksne",27.03528,57.43944,198
26348,117419,"Gulbene",26.71889,57.13222,142
26359,117420,"Puskinskie Gory",28.9,57.01667,108
26378,117421,"Holm",31.18333,57.15,71
26381,117422,"Demjansk",32.46667,57.65,61
26389,117423,"Ostaskov",33.1,57.11667,214
26393,117424,"Vysnij Volocek",34.55,57.53333,169
26403,117425,"Pavilosta",21.18944,56.88833,9
26406,117426,"Liepaja",21.02056,56.47528,5
26416,117427,"Saldus",22.50361,56.67528,114
26424,117429,"Dobele",23.31972,56.62,43
26425,117430,"Jelgava",23.7375,56.6775,6
26429,117431,"Bauska",24.18278,56.41583,31
26435,117432,"Skriveri",25.12833,56.6425,81
26436,117433,"Zilani",25.91833,56.52,108
26446,117434,"Rezekne",27.28056,56.54472,158
26477,117435,"Velikie Luki",30.61667,56.35,103
26499,117436,"Staritsa",34.91667,56.48333,185
26509,117438,"Klaipeda",21.09167,55.73139,7
26515,117439,"Telsiai",22.25667,55.99111,152
26529,117442,"Panevezys",24.41722,55.73528,58
26544,117444,"Daugavpils",26.65917,55.93417,125
26547,117445,"Dukstas",26.31611,55.51778,168
26554,117447,"Verhnedvinsk",27.94,55.82083,132
26585,117448,"Belyj",32.93333,55.83333,222
26600,117449,"Silute",21.44694,55.35222,5
26621,117452,"Raseiniai",23.14972,55.39444,110
26634,117455,"Ukmerge",24.76028,55.26417,73
26643,117456,"Sharcovschina",27.45667,55.36306,131
26645,117457,"Lyntupy",26.30694,55.04889,212
26653,117458,"Polotsk",28.75167,55.47472,133
26657,117459,"Dokshitsy",27.76056,54.88722,193
26659,117460,"Lepel",28.70472,54.88,174
26666,117461,"Vitebsk",30.24917,55.25278,176
26695,117463,"Vjaz'Ma",34.4,55.16667,251
26702,117464,"Kaliningrad",20.55833,54.72639,21
26737,117469,"Varena",24.55167,54.24833,111
26759,117470,"Borisov",28.49778,54.26556,189
26763,117471,"Orsha",30.44389,54.50278,185
26774,117472,"Gorki",30.94389,54.30389,205
26781,117473,"Smolensk",32.06667,54.75,238
26795,117474,"Spas-Demensk",34.01667,54.41667,238
26825,117475,"Grodno",24.05556,53.60222,149
26832,117476,"Lida",25.32333,53.90222,157
26850,117477,"Minsk",27.63528,53.92861,224
26853,117478,"Berezino",28.99778,53.82833,154
26855,117479,"Mariyna Gorka",28.14111,53.49167,177
26863,117480,"Mogilev",30.09611,53.95556,193
26864,117481,"Klichev",29.31194,53.49444,155
26878,117482,"Slavgorod",31.00361,53.45111,170
26887,117484,"Kostuckovichi",32.07111,53.35861,167
26894,117485,"Zukovka",33.75,53.53333,177
26898,117486,"Brjansk",34.31667,53.25,216
26941,117487,"Baranovichi",25.97194,53.13194,193
26951,117488,"Slutsk",27.55194,53.05333,162
26961,117489,"Bobruisk",29.12694,53.20861,156
26966,117490,"Zhlobin",30.04361,52.89417,142
26976,117491,"Krasnaja Gora",31.6,53.01667,148
26997,117492,"Trubchevsk",33.76667,52.58333,178
27008,117493,"Babaevo",35.91139,59.40417,137
27108,117500,"Ohony",35.63333,58.56667,147
27113,117501,"Cerepovec",38.01861,59.28083,117
27208,117503,"Maksatikha",35.9,57.8,142
27225,117504,"Rybinsk",38.68333,58.1,105
27316,117512,"Kasin",37.56667,57.33333,138
27321,117513,"Uglic",38.3,57.5,122
27329,117514,"Rostov",39.41667,57.2,101
27417,117525,"Klin",36.75,56.35,167
27507,117536,"Gagarin",35.03333,55.51667,196
27511,117538,"Novo-Jerusalim",36.81667,55.9,163
27523,117539,"Pavlovskij Posad",38.68333,55.76667,132
27606,117547,"Malojaroslavec",36.48333,55.01667,197
27611,117548,"Naro-Fominsk",36.7,55.38333,193
27627,117552,"Kasira",38.15,54.83333,221
27707,117560,"Suhinichi",35.35,54.1,238
27817,117572,"Mcensk",36.53333,53.38333,201
27821,117573,"Uzlovaja",38.13333,54,231
27823,117574,"Pavelets",39.25,53.78333,209
27906,117581,"Orel",36,52.93333,196
27928,117583,"Elec",38.51667,52.63333,167
27930,117584,"Lipeck",39.51667,52.7,177
33008,118029,"Brest",23.68583,52.11667,146
33019,118030,"Pinsk",26.11194,52.12222,142
33027,118031,"Zhitckovichi",27.86944,52.21389,137
33036,118032,"Mozyr",29.19222,52.03639,190
33038,118033,"Vasilevichi",29.84056,52.25194,142
33041,118034,"Gomel",30.96306,52.40194,126
33049,118035,"Semenovka",32.58333,52.18333,161
33058,118036,"Druzhba",33.95,52.05,190
33088,118037,"Sarny",26.61667,51.28333,156
33124,118038,"Bragin",30.2475,51.79667,116
33135,118039,"Chernihiv",31.25,51.46667,141
33173,118040,"Kovel'",24.68333,51.21667,174
33177,118041,"Volodymyr-Volyns'Kyi",24.31667,50.83333,194
33187,118042,"Luts'K",25.5,50.7,232
33213,118043,"Ovruch",28.78333,51.31667,170
33228,118044,"Teteriv",29.58333,50.7,132
33231,118045,"Chornobyl'",30.23333,51.28333,127
33246,118046,"Nizhyn",31.9,51.05,126
33261,118047,"Konotop",33.2,51.23333,149
33268,118048,"Romny",33.45,50.76667,169
33275,118049,"Sumy",34.66667,50.85,181
33301,118052,"Rivne",26.13333,50.58333,231
33312,118053,"Novohrad-Volyns'Kyi",27.63333,50.6,218
33345,118056,"Kiev",30.56667,50.4,167
33362,118059,"Priluky",32.38333,50.58333,133
33376,118060,"Hadiach",33.98333,50.36667,154
34003,118129,"Ponyri",36.3,52.31667,251
34009,118130,"Kursk",36.16667,51.76667,247
34013,118131,"Livny",37.6,52.43333,179
34109,118140,"Obojan'",36.31667,51.2,192
34202,118151,"Gotnja",35.76667,50.8,226
34231,118154,"Liski",39.5,51,115
34110,125493,"Bogoroditskoe-Fenino",37.35,51.16667,226
10282,125949,"Feldberg/Mecklenburg",13.4175,53.3175,116
26238,125975,"Ruijena",25.37167,57.88667,69
26447,125976,"Madona",26.2375,56.84806,133
10309,125983,"Ahaus",6.94083,52.08139,47
10442,126047,"Alfeld",9.80722,51.96444,145
10540,126048,"Eisenach",10.36222,51.00083,314
11669,126056,"Polom",16.32222,50.35028,747
22520,126066,"Kem' - Port",34.8,64.98333,8
10516,126250,"Koblenz (Falkenstein-Kaserne)",7.57917,50.37111,98
10534,126251,"Hoherodskopf/Vogelsb",9.22472,50.50861,744
11653,126426,"Snezka",15.74028,50.73583,1602
10495,126581,"Hoyerswerda",14.25306,51.44917,116
26058,126583,"Narva-Joesuu",28.10944,59.38944,30
26227,126585,"Ruhnu",23.25889,57.78333,3
26231,126586,"Parnu-Sauga",24.46972,58.41972,13
26242,126587,"Tartu-Toravere",26.46139,58.26389,72
10424,126697,"Werl",7.88778,51.57639,86
12001,126726,"Petrobaltic Beta",18.1825,55.48083,46
2883,126736,"Kajaani Petäisenniska",27.75194,64.21678,160
2890,126737,"Utsjoki Kevo Kevojärvi",27.012,69.757,76
1364,126742,"Filefjell",8.1125,61.17778,955
1078,126780,"Slettnes Fyr",28.21778,71.08389,8
1359,126781,"Geilo-Oldebraten",8.19472,60.53,774
10312,126832,"Belm",8.16944,52.31694,104
6439,126849,"Sint-Katelijne-Waver",4.52472,51.075,11
NA,126861,"st101 Vallikallio R",24.82519,60.22653,24
NA,126863,"st101 Mestarintunneli R",24.81843,60.22257,24
NA,127166,"vt5 Loikkala Opt",27.94715,64.28899,145
NA,127167,"vt5 Nuottijärvi Opt",27.52454,64.1627,163
10537,127420,"Neu-Ulrichstein",9.0225,50.75167,352
1315,127595,"Evanger",6.11056,60.64694,17
NA,127836,"vt23 Mustinsalo R",28.15451,62.37457,134
1192,127852,"Straumsnes",17.66222,68.43194,200
NA,127859,"vt23 Lamminpää K",28.46415,62.52406,100
22249,128191,"Kanewka",39.66639,67.12806,151
22717,128193,"Suojarwi",32.38333,62.1,156
22012,128194,"Cyp",33.09278,69.72139,11
22891,128195,"Sosnowo",30.31667,60.55,70
26067,128196,"Wolosowo",29.5,59.43333,129
22805,128198,"Walaam",30.88333,61.36667,16
22305,128220,"Zasheek",31.11667,66.25,119
22897,128222,"Ozerki",29,60.21667,11
22413,128223,"Engozero",33.93333,65.78333,80
22213,128225,"Apatity",33.36222,67.55083,134
22101,128228,"Janiskoski",28.78111,68.97056,101
22100,128229,"Werhow",28.92722,68.54639,115
22829,128230,"Woznesen",35.48333,61.01667,41
1414,129631,"Rover",5.07806,59.43806,25
1441,129681,"Hovden-Lundane",7.41,59.595,836
10028,129725,"Sankt Peter-Ording",8.60278,54.32778,11
1298,129777,"Nordli-Holand",13.71778,64.44556,433
2888,129963,"Inari Seitalaassa",27.75679,69.04851,120
6203,130043,"Platform P11-B",3.34167,52.36,24
1198,130076,"Dividalen Ii",19.70167,68.78167,204
2230,130143,"Gubbhogen",15.55639,64.21833,310
2110,130156,"Gielas",15.06889,65.32806,577
2044,130476,"Kiruna Airport",20.34,67.82278,447
6494,130712,"Mont Rigi",6.07333,50.51083,673
10139,130822,"Bremervoerde",9.13889,53.445,12
10365,130936,"Genthin",12.16,52.3875,38
1148,131345,"Storforshei",14.53056,66.39611,110
10520,131398,"Andernach",7.42028,50.42361,76
27037,131523,"Vologda",39.92556,59.31833,130
1146,132070,"Skamdal",13.89667,66.23472,5
1444,132071,"Valle",7.53278,59.20167,302
1489,132072,"Bjoernholt",10.68778,60.05139,360
1086,132073,"Baatsfjord Lufthavn",29.7,70.60278,152
1099,132074,"Vardoe Lufthavn",31.04389,70.35444,12
1220,132075,"Mannen",7.77028,62.45556,1294
1362,132076,"Juvvasshoe",8.37278,61.67778,1894
1358,132077,"Hemsedal",8.59306,60.85472,604
1466,132078,"Kjeller",11.03833,59.97083,109
1139,132079,"Vaeroey Heliport",12.72278,67.65278,4
1463,132080,"Aas",10.78194,59.66056,89
1381,132081,"Oestre Toten",10.86833,60.70028,264
1044,132093,"Hasvik Lufthavn",22.14611,70.48611,6
1027,132094,"Tromsoe-Holt",18.90556,69.65222,20
1371,132095,"Loeken I Vollbu",9.06306,61.12194,521
1382,132096,"Kise Paa Hedmark",10.80556,60.77333,128
1342,132097,"Ullensvang",6.65389,60.31861,12
1387,132098,"Faavang",10.18556,61.455,200
1485,132099,"Sande-Galleberg",10.215,59.61944,60
1270,132101,"Kvithamar",10.87944,63.48806,40
1464,132102,"Landvik",8.5225,58.34,6
1250,132103,"Folldal_Fredheim",9.99472,62.12806,694
1413,132104,"Saerheim",5.65056,58.76056,87
1308,132105,"Fureneset",5.04444,61.29278,7
1272,132106,"Frosta",10.69389,63.56556,70
1084,132107,"Pasvik-Svanvik",30.04111,69.45528,27
1218,132117,"Tafjord",7.42167,62.23028,17
6447,132279,"Uccle-Ukkel",4.35806,50.79694,101
NA,132310,"Helsinki Kaivopuisto",24.95622,60.15363,2
1124,132437,"Kjobli I Snasa",12.46917,64.15861,195
2263,132670,"Fredrika",18.36556,64.07556,327
1144,132694,"Helligvaer Ii",13.89556,67.40472,24
1440,132829,"Blasjo",6.87333,59.34278,1105
1293,132908,"Meraker-Egge",11.7275,63.41139,170
1212,133878,"Ona Ii",6.53944,62.85944,15
1346,133956,"Midtstova",7.27694,60.65694,1162
26882,135014,"Roslavl'",32.83333,53.93333,224
26668,135464,"Senno",29.6875,54.80444,176
1135,135650,"Seljelia",13.58667,66.13167,124
1133,135652,"Laksfors",13.28917,65.62139,50
1417,135958,"Nedre Vats",5.75056,59.48389,65
22003,136077,"Vajda-Guba",31.97861,69.93611,8
1453,136586,"Hynnekleiv",8.41611,58.60056,162
1449,136587,"Gjerstad",9.02639,58.87,32
3482,136597,"Marham",0.56611,52.65139,21
22641,136606,"Onega",38.11667,63.9,13
1400,136748,"Ekofisk",3.21194,56.54667,52
10261,136909,"Seehausen",11.73056,52.89278,23
22541,136968,"Unskij",38.4,64.83333,5
27719,137151,"Tula",37.61667,54.23333,205
NA,137190,"Rovaniemi lentoasema AWOS",25.82208,66.56249,193
NA,137208,"Jyväskylä lentoasema AWOS",25.67533,62.40233,138
22004,137388,"Nikel'",30.20889,69.41028,92
26784,137896,"Pochinok",32.43333,54.41667,201
26479,137897,"Toropec",31.63333,56.48333,187
26578,137898,"Velizh",31.18333,55.61667,166
27215,137899,"Krasnyj",37.1,58.03333,167
27223,137902,"Poshehon'E",39.13333,58.48333,118
22429,137939,"Solovki",35.69583,65.03139,7
22749,137946,"Konevo",39.3,62.13333,101
22334,137948,"Kashkarantsy",36.01694,66.33694,4
22546,137949,"Severodvinsk",39.76556,64.55528,8
27106,137970,"Ustyuzhna",36.43333,58.85,125
26063,138028,"St.Petersburg",30.7,59.95,75
27612,138029,"Moskva",37.61667,55.83333,157
27402,138133,"Tver'",35.86667,56.88333,146
1493,140448,"Sarpsborg",11.11472,59.28556,57
27730,147469,"Ryazan'",39.7,54.63333,157
10480,148689,"Oschatz",13.09472,51.29722,150
34123,149189,"Voronez",39.21667,51.7,149
1314,149754,"Fossmark",5.72472,60.52056,10
26456,150128,"Opochka",28.71667,56.71667,99
2718,150168,"Puumala kirkonkylä",28.18491,61.52242,98
10210,150328,"Friesoythe-Altenoyth",7.90222,53.06444,7
6183,150730,"Drogden Fyr",12.71139,55.53639,14
1460,150948,"Gullholmen",10.57806,59.43528,14
6490,151008,"Spa (Aerodrome)",5.91,50.47861,477
NA,151028,"Helsinki Vuosaari satama",25.1959,60.20867,2
2997,151029,"Maarianhamina Länsisatama",19.9291,60.09136,2
2724,151048,"Lumparland Långnäs satama",20.29765,60.11584,10
2744,151049,"Tampere Tampella",23.76478,61.50124,91
1076,154010,"Tanabru",28.15861,70.21222,32
1082,154011,"Nyrud",29.24389,69.14694,56
10513,154068,"Koeln-Bonn",7.15861,50.86611,100
6019,154347,"Silstrup",8.64111,56.92917,41
6030,154761,"Flyvestation Aalborg",9.85056,57.09639,13
6120,155158,"Odense Lufthavn",10.33056,55.475,21
6032,155237,"Stenhoj",10.335,57.38278,56
6058,155248,"Hvide Sande",8.14111,56.00722,4
6180,155249,"Koebenhavns Lufthavn",12.64528,55.61417,5
6168,155250,"Nakkehoved Fyr",12.34222,56.11917,43
6074,155251,"Aarhus Lufthavn",10.13528,56.08028,55
6141,155252,"Abed",11.32889,54.8275,9
6174,155253,"Tessebolle",12.14917,55.39556,22
6096,155254,"Romo/Juvre",8.56,55.19056,9
6081,155255,"Blavandshuk Fyr",8.08278,55.5575,18
6070,155256,"Aarhus Lufthavn",10.62556,56.30833,23
6136,155257,"Tystofte",11.32833,55.24639,12
6079,155258,"Anholt Havn",11.50972,56.71694,4
6193,155260,"Hammer Odde Fyr",14.77194,55.29806,9
6124,155261,"Sydfyns Flyveplads",10.56944,55.01444,7
6031,155262,"Tylstrup",9.9525,57.18528,13
6049,155263,"Hald Vest",10.09278,56.56056,89
6147,155265,"Vindebek Kyst",12.18417,54.87889,5
6138,155266,"Lango",10.99389,54.82056,4
6052,155267,"Thyboron",8.215,56.70667,4
6151,155268,"Omo Fyr",11.13472,55.15917,3
6149,155269,"Gedser",11.94361,54.56861,5
6041,155270,"Skagen Fyr",10.63167,57.73639,5
6123,155271,"Assens/Toro",9.88833,55.24444,3
6156,155272,"Holbek Flyveplads",11.60333,55.73583,13
6060,155273,"Flyvestation Karup",9.11389,56.29333,53
6159,155274,"Rosnes Fyr",10.86944,55.74361,16
6110,155304,"Flyvestation Skrydst",9.26333,55.22528,47
6190,155305,"Bornholms Lufthavn",14.74944,55.06778,17
6170,155307,"Roskilde Lufthavn",12.13639,55.58694,43
6080,155308,"Esbjerg Lufthavn",8.56306,55.52806,29
6104,155311,"Billund Lufthavn",9.1675,55.73806,80
6126,155313,"Arslev",10.43972,55.30889,51
6056,155314,"Mejrup",8.67028,56.38306,55
6068,155315,"Isenvad",9.18111,56.09389,62
6188,155316,"Sjelsmark",12.41222,55.87639,41
6109,155317,"Askov",9.11222,55.47139,62
6082,155318,"Borris",8.62417,55.95917,25
6093,155319,"Vester Vedsted",8.655,55.29111,5
6065,155320,"Ars Syd",9.50667,56.75583,33
6135,155321,"Flakkebjerg",11.38806,55.32167,34
6154,155322,"Brandelev",11.86028,55.2075,46
6073,155323,"Sletterhage Fyr",10.51361,56.09556,6
6102,155324,"Horsens/Bygholm",9.78694,55.86806,24
6072,155325,"Odum",10.12722,56.30278,62
6119,155342,"Kegnes Fyr",9.98806,54.85278,19
27921,155668,"Efremov",38.11667,53.15,215
12155,155728,"Gdansk-Swibno",18.93444,54.33361,9
NA,156189,"kt73 Vieki K",29.62367,63.47481,99
NA,156193,"vt6 Kousa Opt",29.86784,61.97437,84
NA,156194,"kt67 Ilmajoki Opt",22.62676,62.74351,42
NA,156195,"st435 Sulkava K",28.31847,61.79936,91
NA,156196,"yt3495 Rautaharkko R",23.77428,61.47738,83
NA,156198,"vt8 Rauma Opt",21.58443,61.15717,20
NA,156200,"vt13 Perho Möttönen R",24.52229,63.16739,158
6197,360958,"Nexo Vest",15.09528,55.05583,25
26080,366754,"Kirishi",32.03333,59.45,26
10091,366993,"Arkona",13.43667,54.68167,42
12435,370762,"Kalisz",18.08194,51.78194,138
26524,370939,"Siauliai",23.33111,55.94222,107
26730,370949,"Vilnius",25.10694,54.62611,156
26629,370950,"Kaunas",23.83583,54.88389,77
26518,370951,"Laukuva",22.23944,55.60889,166
26633,372564,"Utena",25.58972,55.51528,106
26531,373476,"Birzai",24.77417,56.19306,62
NA,654910,"Espoo Kytö",24.7248,60.0576,0
2764,778135,"Kittilä Lompolonvuoma",24.20955,67.99746,270
2760,806428,"Kuusamo Ruka Talvijärvi",29.1364,66.1715,305
2986,852678,"Espoo Nuuksio",24.56788,60.29128,90
2985,874863,"Espoo Tapiola",24.78732,60.17802,6
NA,971523,"vt7 Loviisa Markkinamäki R",26.44029,60.4955,10
NA,971530,"vt7 Pyhtää Siltakylä R",26.70168,60.50013,2
NA,971643,"vt18 Nurmo Munakka K",22.78202,62.85146,41
